{"layout":"tutorial_hands_on","title":"A Docker-based interactive Jupyterlab powered by GPU for artificial intelligence in Galaxy","zenodo_link":"https://zenodo.org/record/6091361","questions":["How to use Jupyterlab and it several features?","How to use it for creating input datasets and writing artificial intelligence (AI) algorithms?"],"objectives":["Learn to use Jupyterlab - an online Python editor designed for developing AI algorithms","Explore several of its features such as Git, workflow of jupyter notebook, integration to Galaxy","Develop AI algorithms using Tensorflow","Send long-running jobs to Galaxy's cluster and save results in its history","Reproduce results from recent scientific publications - COVID CT scan segmentation and 3D protein structure prediction"],"requirements":[{"type":"internal","topic_name":"galaxy-interface","tutorials":["jupyterlab"]},{"type":"internal","topic_name":"statistics","tutorials":["intro_deep_learning"]}],"time_estimation":"1H","tags":["interactive-tools","machine-learning","deep-learning","jupyter-lab","image-segmentation","protein-3D-structure"],"js_requirements":{"mathjax":null,"mermaid":false},"short_id":"T00266","symlink":null,"contributions":{"authorship":["anuprulez"],"reviewing":["shiltemann","hexylena","kxk302","anuprulez","bgruening"]},"url":"/topics/statistics/tutorials/gpu_jupyter_lab/tutorial.html","topic_name":"statistics","tutorial_name":"gpu_jupyter_lab","dir":"topics/statistics/tutorials/gpu_jupyter_lab","id":"statistics/gpu_jupyter_lab","hands_on":true,"slides":false,"mod_date":"2024-07-09 14:29:46 +0000","pub_date":"2022-04-06 17:18:13 +0000","version":8,"workflows":[{"workflow":"gpu_jupyterlab_as_jupytool.ga","tests":false,"url":"https://training.galaxyproject.org/training-material/topics/statistics/tutorials/gpu_jupyter_lab/workflows/gpu_jupyterlab_as_jupytool.ga","url_html":"https://training.galaxyproject.org/training-material/topics/statistics/tutorials/gpu_jupyter_lab/workflows/gpu_jupyterlab_as_jupytool.html","path":"topics/statistics/tutorials/gpu_jupyter_lab/workflows/gpu_jupyterlab_as_jupytool.ga","wfid":"statistics-gpu_jupyter_lab","wfname":"gpu-jupyterlab-as-jupytool","trs_endpoint":"https://training.galaxyproject.org/training-material/api/ga4gh/trs/v2/tools/statistics-gpu_jupyter_lab/versions/gpu-jupyterlab-as-jupytool","license":null,"parent_id":"statistics/gpu_jupyter_lab","topic_id":"statistics","tutorial_id":"gpu_jupyter_lab","creators":[],"name":"gpu_jupytool","title":"gpu_jupytool","version":1,"description":"","tags":[],"features":{"report":null,"subworkflows":false,"comments":false,"parameters":false},"workflowhub_id":"1325","history":[{"hash":"a13a2df4e05c8a59491ec3c2e896f9a2d6e57c43","unix":"1673612716","message":"add get data section","short_hash":"a13a2df4e","num":1}],"test_results":null,"modified":"2024-12-06 14:49:36 +0000","mermaid":"flowchart TD\n  0[\"ℹ️ Input Dataset\\nIPynb notebook\"];\n  style 0 stroke:#2c3143,stroke-width:4px;\n  1[\"train_rows\"];\n  2[\"ℹ️ Input Dataset\\ntest_rows\"];\n  style 2 stroke:#2c3143,stroke-width:4px;\n  3[\"ℹ️ Input Dataset\\ntest_rows_labels\"];\n  style 3 stroke:#2c3143,stroke-width:4px;\n  4[\"GPU enabled Interactive Jupyter Notebook for Machine Learning\"];\n  0 -->|output| 4;\n  1 -->|out_file1| 4;\n  2 -->|output| 4;\n  3 -->|output| 4;\n  5[\"Cut\"];\n  4 -->|output_collection| 5;","graph_dot":"digraph main {\n  node [fontname=\"Atkinson Hyperlegible\", shape=box, color=white,style=filled,color=peachpuff,margin=\"0.2,0.2\"];\n  edge [fontname=\"Atkinson Hyperlegible\"];\n  0[color=lightblue,label=\"ℹ️ Input Dataset\\nIPynb notebook\"]\n  1[label=\"train_rows\"]\n  2[color=lightblue,label=\"ℹ️ Input Dataset\\ntest_rows\"]\n  3[color=lightblue,label=\"ℹ️ Input Dataset\\ntest_rows_labels\"]\n  4[label=\"GPU enabled Interactive Jupyter Notebook for Machine Learning\"]\n  0 -> 4 [label=\"output\"]\n  1 -> 4 [label=\"out_file1\"]\n  2 -> 4 [label=\"output\"]\n  3 -> 4 [label=\"output\"]\n  5[label=\"Cut\"]\n  4 -> 5 [label=\"output_collection\"]\n}","workflow_tools":["Cut1","Filter1","interactive_tool_ml_jupyter_notebook"],"inputs":[{"annotation":"","content_id":null,"errors":null,"id":0,"input_connections":{},"inputs":[{"description":"","name":"IPynb notebook"}],"label":"IPynb notebook","name":"Input dataset","outputs":[],"position":{"left":0.0,"top":49.46180725097656},"tool_id":null,"tool_state":"{\"optional\": false, \"tag\": \"\"}","tool_version":null,"type":"data_input","uuid":"9ddc6af5-38e4-4e13-9376-3540a8f94afb","workflow_outputs":[]},{"annotation":"","content_id":null,"errors":null,"id":2,"input_connections":{},"inputs":[{"description":"","name":"test_rows"}],"label":"test_rows","name":"Input dataset","outputs":[],"position":{"left":3.923614501953125,"top":293.4548645019531},"tool_id":null,"tool_state":"{\"optional\": false, \"tag\": \"\"}","tool_version":null,"type":"data_input","uuid":"48752f10-3b93-4721-aac6-9217c9285e24","workflow_outputs":[]},{"annotation":"","content_id":null,"errors":null,"id":3,"input_connections":{},"inputs":[{"description":"","name":"test_rows_labels"}],"label":"test_rows_labels","name":"Input dataset","outputs":[],"position":{"left":2.986114501953125,"top":389.4618225097656},"tool_id":null,"tool_state":"{\"optional\": false, \"tag\": \"\"}","tool_version":null,"type":"data_input","uuid":"d4e139b9-c90d-49b0-9600-dae8de4c04e5","workflow_outputs":[]}],"outputs":[{"annotation":"","content_id":"Filter1","errors":null,"id":1,"input_connections":{},"inputs":[{"description":"runtime parameter for tool Filter","name":"input"}],"label":"train_rows","name":"Filter","outputs":[{"name":"out_file1","type":"input"}],"position":{"left":6.90972900390625,"top":166.4757080078125},"post_job_actions":{"RenameDatasetActionout_file1":{"action_arguments":{"newname":"new_train_rows"},"action_type":"RenameDatasetAction","output_name":"out_file1"}},"tool_id":"Filter1","tool_state":"{\"cond\": \"c3==0\", \"header_lines\": \"1\", \"input\": {\"__class__\": \"RuntimeValue\"}, \"__page__\": null, \"__rerun_remap_job_id__\": null}","tool_version":"1.1.1","type":"tool","uuid":"25b59910-1d66-4248-98a4-0a3e23193551","workflow_outputs":[{"label":null,"output_name":"out_file1","uuid":"09c60184-4418-4a83-8d7c-eeac4cdca49e"}]},{"annotation":"","content_id":"interactive_tool_ml_jupyter_notebook","errors":null,"id":4,"input_connections":{"mode|ipynb":{"id":0,"output_name":"output"},"user_inputs_0|input_type|input_value":{"id":1,"output_name":"out_file1"},"user_inputs_1|input_type|input_value":{"id":2,"output_name":"output"},"user_inputs_2|input_type|input_value":{"id":3,"output_name":"output"}},"inputs":[{"description":"runtime parameter for tool GPU enabled Interactive Jupyter Notebook for Machine Learning","name":"mode"}],"label":null,"name":"GPU enabled Interactive Jupyter Notebook for Machine Learning","outputs":[{"name":"output_collection","type":"input"},{"name":"jupyter_notebook","type":"ipynb"}],"position":{"left":307.3437805175781,"top":0.0},"post_job_actions":{"ChangeDatatypeActionoutput_collection":{"action_arguments":{"newtype":"tabular"},"action_type":"ChangeDatatypeAction","output_name":"output_collection"},"ChangeDatatypeActionoutput_dataset":{"action_arguments":{"newtype":"tabular"},"action_type":"ChangeDatatypeAction","output_name":"output_dataset"}},"tool_id":"interactive_tool_ml_jupyter_notebook","tool_state":"{\"mode\": {\"mode_select\": \"previous\", \"__current_case__\": 1, \"ipynb\": {\"__class__\": \"RuntimeValue\"}, \"run_it\": \"true\"}, \"user_inputs\": [{\"__index__\": 0, \"input_name\": \"train\", \"description\": \"\", \"input_type\": {\"input_type_selector\": \"dataset\", \"__current_case__\": 0, \"input_value\": {\"__class__\": \"RuntimeValue\"}}}, {\"__index__\": 1, \"input_name\": \"test\", \"description\": \"\", \"input_type\": {\"input_type_selector\": \"dataset\", \"__current_case__\": 0, \"input_value\": {\"__class__\": \"RuntimeValue\"}}}, {\"__index__\": 2, \"input_name\": \"testlabels\", \"description\": \"\", \"input_type\": {\"input_type_selector\": \"dataset\", \"__current_case__\": 0, \"input_value\": {\"__class__\": \"RuntimeValue\"}}}], \"__page__\": null, \"__rerun_remap_job_id__\": null}","tool_version":"0.2","type":"tool","uuid":"b0563c69-10cd-4024-b5de-309c828b8ea2","workflow_outputs":[{"label":null,"output_name":"output_collection","uuid":"fe942416-e111-40c9-8b90-1102348a5b2c"},{"label":null,"output_name":"jupyter_notebook","uuid":"5a38221b-92db-4b48-9b4f-a5c8ecd6f8af"}]},{"annotation":"","content_id":"Cut1","errors":null,"id":5,"input_connections":{"input":{"id":4,"output_name":"output_collection"}},"inputs":[],"label":null,"name":"Cut","outputs":[{"name":"out_file1","type":"tabular"}],"position":{"left":617.9861755371094,"top":52.44792175292969},"post_job_actions":{},"tool_id":"Cut1","tool_state":"{\"columnList\": \"c1\", \"delimiter\": \"C\", \"input\": {\"__class__\": \"ConnectedValue\"}, \"__page__\": null, \"__rerun_remap_job_id__\": null}","tool_version":"1.0.2","type":"tool","uuid":"0909fb62-c832-4d1d-9d95-5b8ebac25dae","workflow_outputs":[{"label":null,"output_name":"out_file1","uuid":"fd1c2370-a25e-41d3-8351-fb3aae79c394"}]}]}],"api":"https://training.galaxyproject.org/training-material/api/topics/statistics/tutorials/gpu_jupyter_lab/tutorial.json","tools":["Cut1","Filter1","interactive_tool_ml_jupyter_notebook"],"supported_servers":{"exact":[{"url":"https://usegalaxy.eu","name":"UseGalaxy.eu","usegalaxy":true}],"inexact":[]},"supported_servers_matrix":{"servers":[{"url":"http://apostl.moffitt.org/","name":"APOSTL"},{"url":"http://smile.hku.hk/SARGs","name":"ARGs-OAP"},{"url":"https://iris.angers.inra.fr/galaxypub-cfbp","name":"CIRM-CFBP"},{"url":"https://vm-chemflow-francegrille.eu/","name":"ChemFlow"},{"url":"https://hyperbrowser.uio.no/coloc-stats","name":"Coloc-stats"},{"url":"https://coralsnp.science.psu.edu/galaxy/","name":"CoralSNP"},{"url":"http://cropgalaxy.excellenceinbreeding.org/","name":"CropGalaxy"},{"url":"http://dintor.eurac.edu/","name":"Dintor"},{"url":"http://www.freebioinfo.org/","name":"FreeBioinfo"},{"url":"http://igg.cloud.ba.infn.it/galaxy","name":"GASLINI"},{"url":"https://galaxy.mesocentre.uca.fr","name":"Galaxy@AuBi","usegalaxy":false},{"url":"https://galaxy.pasteur.fr/","name":"Galaxy@Pasteur","usegalaxy":false},{"url":"https://galaxytrakr.org/","name":"GalaxyTrakr","usegalaxy":false},{"url":"http://hyperbrowser.uio.no/hb/","name":"Genomic Hyperbrowser"},{"url":"http://gigagalaxy.net/","name":"GigaGalaxy"},{"url":"https://galaxy-web.ipk-gatersleben.de","name":"IPK Galaxy Blast Suite"},{"url":"https://www.immportgalaxy.org/","name":"ImmPort Galaxy"},{"url":"http://galaxy.interactomix.com/","name":"InteractoMIX"},{"url":"https://mississippi.sorbonne-universite.fr","name":"MISSISSIPPI","usegalaxy":false},{"url":"https://neo.engr.uconn.edu/","name":"Mandoiu Lab"},{"url":"http://mapping-by-sequencing.vm.uni-freiburg.de:8080/","name":"MiModD NacreousMap"},{"url":"http://galaxy.inf.ethz.ch","name":"Oqtans"},{"url":"https://palfinder.ls.manchester.ac.uk/","name":"Palfinder"},{"url":"http://pepsimili.e-nios.com:8080/","name":"PepSimili","usegalaxy":false},{"url":"https://usegalaxy.be/","name":"UseGalaxy.be","usegalaxy":false},{"url":"https://usegalaxy.cz/","name":"UseGalaxy.cz","usegalaxy":false},{"url":"https://usegalaxy.eu","name":"UseGalaxy.eu","usegalaxy":true},{"url":"https://usegalaxy.fr/","name":"UseGalaxy.fr","usegalaxy":false},{"url":"https://usegalaxy.no/","name":"UseGalaxy.no","usegalaxy":false},{"url":"https://usegalaxy.org","name":"UseGalaxy.org (Main)","usegalaxy":true},{"url":"https://usegalaxy.org.au","name":"UseGalaxy.org.au","usegalaxy":true},{"url":"https://viralvariant.anses.fr/","name":"Viral Variant Visualizer (VVV)"}],"tools":[{"id":"Cut1","servers":[{"state":"local","server":"http://apostl.moffitt.org/"},{"state":"local","server":"http://smile.hku.hk/SARGs"},{"state":"missing","server":"https://iris.angers.inra.fr/galaxypub-cfbp"},{"state":"missing","server":"https://vm-chemflow-francegrille.eu/"},{"state":"local","server":"https://hyperbrowser.uio.no/coloc-stats"},{"state":"local","server":"https://coralsnp.science.psu.edu/galaxy/"},{"state":"local","server":"http://cropgalaxy.excellenceinbreeding.org/"},{"state":"local","server":"http://dintor.eurac.edu/"},{"state":"missing","server":"http://www.freebioinfo.org/"},{"state":"local","server":"http://igg.cloud.ba.infn.it/galaxy"},{"state":"local","server":"https://galaxy.mesocentre.uca.fr"},{"state":"local","server":"https://galaxy.pasteur.fr/"},{"state":"missing","server":"https://galaxytrakr.org/"},{"state":"local","server":"http://hyperbrowser.uio.no/hb/"},{"state":"local","server":"http://gigagalaxy.net/"},{"state":"missing","server":"https://galaxy-web.ipk-gatersleben.de"},{"state":"missing","server":"https://www.immportgalaxy.org/"},{"state":"missing","server":"http://galaxy.interactomix.com/"},{"state":"local","server":"https://mississippi.sorbonne-universite.fr"},{"state":"missing","server":"https://neo.engr.uconn.edu/"},{"state":"missing","server":"http://mapping-by-sequencing.vm.uni-freiburg.de:8080/"},{"state":"local","server":"http://galaxy.inf.ethz.ch"},{"state":"missing","server":"https://palfinder.ls.manchester.ac.uk/"},{"state":"local","server":"http://pepsimili.e-nios.com:8080/"},{"state":"local","server":"https://usegalaxy.be/"},{"state":"local","server":"https://usegalaxy.cz/"},{"state":"local","server":"https://usegalaxy.eu"},{"state":"local","server":"https://usegalaxy.fr/"},{"state":"local","server":"https://usegalaxy.no/"},{"state":"local","server":"https://usegalaxy.org"},{"state":"local","server":"https://usegalaxy.org.au"},{"state":"local","server":"https://viralvariant.anses.fr/"}],"version":"local"},{"id":"Filter1","servers":[{"state":"local","server":"http://apostl.moffitt.org/"},{"state":"local","server":"http://smile.hku.hk/SARGs"},{"state":"missing","server":"https://iris.angers.inra.fr/galaxypub-cfbp"},{"state":"missing","server":"https://vm-chemflow-francegrille.eu/"},{"state":"local","server":"https://hyperbrowser.uio.no/coloc-stats"},{"state":"local","server":"https://coralsnp.science.psu.edu/galaxy/"},{"state":"local","server":"http://cropgalaxy.excellenceinbreeding.org/"},{"state":"local","server":"http://dintor.eurac.edu/"},{"state":"missing","server":"http://www.freebioinfo.org/"},{"state":"local","server":"http://igg.cloud.ba.infn.it/galaxy"},{"state":"local","server":"https://galaxy.mesocentre.uca.fr"},{"state":"local","server":"https://galaxy.pasteur.fr/"},{"state":"local","server":"https://galaxytrakr.org/"},{"state":"local","server":"http://hyperbrowser.uio.no/hb/"},{"state":"local","server":"http://gigagalaxy.net/"},{"state":"missing","server":"https://galaxy-web.ipk-gatersleben.de"},{"state":"missing","server":"https://www.immportgalaxy.org/"},{"state":"missing","server":"http://galaxy.interactomix.com/"},{"state":"local","server":"https://mississippi.sorbonne-universite.fr"},{"state":"missing","server":"https://neo.engr.uconn.edu/"},{"state":"missing","server":"http://mapping-by-sequencing.vm.uni-freiburg.de:8080/"},{"state":"local","server":"http://galaxy.inf.ethz.ch"},{"state":"missing","server":"https://palfinder.ls.manchester.ac.uk/"},{"state":"local","server":"http://pepsimili.e-nios.com:8080/"},{"state":"local","server":"https://usegalaxy.be/"},{"state":"local","server":"https://usegalaxy.cz/"},{"state":"local","server":"https://usegalaxy.eu"},{"state":"local","server":"https://usegalaxy.fr/"},{"state":"local","server":"https://usegalaxy.no/"},{"state":"local","server":"https://usegalaxy.org"},{"state":"local","server":"https://usegalaxy.org.au"},{"state":"local","server":"https://viralvariant.anses.fr/"}],"version":"local"},{"id":"interactive_tool_ml_jupyter_notebook","servers":[{"state":"missing","server":"http://apostl.moffitt.org/"},{"state":"missing","server":"http://smile.hku.hk/SARGs"},{"state":"missing","server":"https://iris.angers.inra.fr/galaxypub-cfbp"},{"state":"missing","server":"https://vm-chemflow-francegrille.eu/"},{"state":"missing","server":"https://hyperbrowser.uio.no/coloc-stats"},{"state":"missing","server":"https://coralsnp.science.psu.edu/galaxy/"},{"state":"missing","server":"http://cropgalaxy.excellenceinbreeding.org/"},{"state":"missing","server":"http://dintor.eurac.edu/"},{"state":"missing","server":"http://www.freebioinfo.org/"},{"state":"missing","server":"http://igg.cloud.ba.infn.it/galaxy"},{"state":"missing","server":"https://galaxy.mesocentre.uca.fr"},{"state":"missing","server":"https://galaxy.pasteur.fr/"},{"state":"missing","server":"https://galaxytrakr.org/"},{"state":"missing","server":"http://hyperbrowser.uio.no/hb/"},{"state":"missing","server":"http://gigagalaxy.net/"},{"state":"missing","server":"https://galaxy-web.ipk-gatersleben.de"},{"state":"missing","server":"https://www.immportgalaxy.org/"},{"state":"missing","server":"http://galaxy.interactomix.com/"},{"state":"missing","server":"https://mississippi.sorbonne-universite.fr"},{"state":"missing","server":"https://neo.engr.uconn.edu/"},{"state":"missing","server":"http://mapping-by-sequencing.vm.uni-freiburg.de:8080/"},{"state":"missing","server":"http://galaxy.inf.ethz.ch"},{"state":"missing","server":"https://palfinder.ls.manchester.ac.uk/"},{"state":"missing","server":"http://pepsimili.e-nios.com:8080/"},{"state":"missing","server":"https://usegalaxy.be/"},{"state":"missing","server":"https://usegalaxy.cz/"},{"state":"local","server":"https://usegalaxy.eu"},{"state":"missing","server":"https://usegalaxy.fr/"},{"state":"missing","server":"https://usegalaxy.no/"},{"state":"missing","server":"https://usegalaxy.org"},{"state":"missing","server":"https://usegalaxy.org.au"},{"state":"missing","server":"https://viralvariant.anses.fr/"}],"version":"local"}]},"topic_name_human":"Statistics and machine learning","admin_install":{"install_tool_dependencies":true,"install_repository_dependencies":true,"install_resolver_dependencies":true,"tools":[]},"admin_install_yaml":"---\ninstall_tool_dependencies: true\ninstall_repository_dependencies: true\ninstall_resolver_dependencies: true\ntools: []\n","tours":false,"video":false,"slides_recordings":false,"translations":{"tutorial":[],"slides":[],"video":false},"license":"CC-BY-4.0","type":"tutorial","contributors":[{"name":"Anup Kumar","email":"anup.rulez@gmail.com","twitter":"musafirtweetsz","joined":"2018-08","elixir_node":"de","affiliations":["uni-freiburg","eurosciencegateway","elixir-europe"],"id":"anuprulez","url":"https://training.galaxyproject.org/training-material/api/contributors/anuprulez.json","page":"https://training.galaxyproject.org/training-material/hall-of-fame/anuprulez/"},{"name":"Saskia Hiltemann","maintainer_contact":"gitter","email":"saskia.hiltemann@gmail.com","fediverse":"https://mstdn.science/@shiltemann","fediverse_flavor":"mastodon","bluesky":"shiltemann.bsky.social","linkedin":"shiltemann","matrix":"shiltemann:matrix.org","orcid":"0000-0003-3803-468X","joined":"2017-09","bio":"Researcher at Erasmus Medical Center","elixir_node":"nl","contact_for_training":true,"affiliations":["uni-freiburg","nfdi4plants","elixir-europe"],"former_affiliations":["CINECA-Project","gallantries","erasmusmc"],"location":{"country":"NL","lat":51.912,"lon":4.462},"id":"shiltemann","url":"https://training.galaxyproject.org/training-material/api/contributors/shiltemann.json","page":"https://training.galaxyproject.org/training-material/hall-of-fame/shiltemann/"},{"name":"Helena Rasche","orcid":"0000-0001-9760-8992","maintainer_contact":"gitter","matrix":"hexylena:matrix.org","joined":"2017-09","elixir_node":"nl","affiliations":["erasmusmc","gallantries","by-covid","elixir-europe","elixir-converge"],"former_affiliations":["deNBI","avans-atgm","uni-freiburg"],"contact_for_training":false,"location":{"country":"NL","lat":51.91,"lon":4.46},"id":"hexylena","url":"https://training.galaxyproject.org/training-material/api/contributors/hexylena.json","page":"https://training.galaxyproject.org/training-material/hall-of-fame/hexylena/"},{"name":"Kaivan Kamali","email":"kxk302@gmail.com","joined":"2021-02","id":"kxk302","url":"https://training.galaxyproject.org/training-material/api/contributors/kxk302.json","page":"https://training.galaxyproject.org/training-material/hall-of-fame/kxk302/"},{"name":"Anup Kumar","email":"anup.rulez@gmail.com","twitter":"musafirtweetsz","joined":"2018-08","elixir_node":"de","affiliations":["uni-freiburg","eurosciencegateway","elixir-europe"],"id":"anuprulez","url":"https://training.galaxyproject.org/training-material/api/contributors/anuprulez.json","page":"https://training.galaxyproject.org/training-material/hall-of-fame/anuprulez/"},{"name":"Björn Grüning","email":"bjoern.gruening@gmail.com","twitter":"bjoerngruening","fediverse":"https://fosstodon.org/@bgruening","fediverse_flavor":"mastodon","matrix":"bgruening:matrix.org","orcid":"0000-0002-3079-6586","elixir_node":"de","linkedin":"bgruening","contact_for_training":true,"joined":"2017-09","location":{"country":"DE","lat":47.997791,"lon":7.842609},"affiliations":["eurosciencegateway","eosc-life","by-covid","deNBI","sfb992","elixir-converge","uni-freiburg","elixir-europe"],"id":"bgruening","url":"https://training.galaxyproject.org/training-material/api/contributors/bgruening.json","page":"https://training.galaxyproject.org/training-material/hall-of-fame/bgruening/"}]}