{"layout":"tutorial_hands_on","title":"Text-mining with the SimText toolset","zenodo_link":"https://doi.org/10.5281/zenodo.4638516","questions":["How can I automatically collect PubMed data for a set of biomedical entities such as genes?","How can I analyze similarities among biomedical entities based on PubMed data on large-scale?"],"objectives":["Learn how to use the SimText toolset","Upload a table with biomedical entities in Galaxy","Retrieve PubMed data for each of the biomedical entities","Extract biomedical terms from the PubMed data for each biomedical entity","Analyze the similarity among the biomedical entities based on the extracted data in an interactive app"],"time_estimation":"1H","key_points":["The SimText toolset allows large-scale literature analysis of a set of biomedical entities such as genes or diseases","The similarities among the biomedical entities can be explored interactively","The litertaure based grouping can be compared to an existing grouping to discover similarities/ relationships hidden in the literature"],"tags":["interactive-tools"],"js_requirements":{"mathjax":null,"mermaid":false},"short_id":"T00272","symlink":null,"contributions":{"authorship":["mgramm1","dlalgroup","blankenberg"],"reviewing":["shiltemann","hexylena","dlal-group","bgruening","martenson"]},"url":"/topics/statistics/tutorials/text-mining_simtext/tutorial.html","topic_name":"statistics","tutorial_name":"text-mining_simtext","dir":"topics/statistics/tutorials/text-mining_simtext","id":"statistics/text-mining_simtext","hands_on":true,"slides":false,"mod_date":"2024-03-05 13:33:11 +0000","pub_date":"2021-04-05 18:58:54 +0000","version":7,"workflows":[{"workflow":"main_workflow.ga","tests":false,"url":"https://training.galaxyproject.org/training-material/topics/statistics/tutorials/text-mining_simtext/workflows/main_workflow.ga","url_html":"https://training.galaxyproject.org/training-material/topics/statistics/tutorials/text-mining_simtext/workflows/main_workflow.html","path":"topics/statistics/tutorials/text-mining_simtext/workflows/main_workflow.ga","wfid":"statistics-text-mining_simtext","wfname":"main-workflow","trs_endpoint":"https://training.galaxyproject.org/training-material/api/ga4gh/trs/v2/tools/statistics-text-mining_simtext/versions/main-workflow","license":null,"parent_id":"statistics/text-mining_simtext","topic_id":"statistics","tutorial_id":"text-mining_simtext","creators":[{"class":"Person","identifier":"","name":""}],"name":"Simtext training workflow","title":"Simtext training workflow","version":1,"description":"In this workflow the similarity among set of search queries (e.g. genes) is analyzed based on the associated vocabulary in PubMed. The last tool is an interactive tool that enables the inspection of the data.","tags":["text-mining","statistics","visualisation","PubMed","PubTator"],"features":{"report":null,"subworkflows":false,"comments":false,"parameters":false},"workflowhub_id":"1310","history":[{"hash":"9ac4bf8f255f80662ab8f0025629d20f5f31f8ca","unix":"1617184494","message":"Change topic of training to statistics","short_hash":"9ac4bf8f2","num":1}],"test_results":null,"modified":"2024-12-06 10:26:04 +0000","mermaid":"flowchart TD\n  0[\"ℹ️ Input Dataset\\nInput dataset\"];\n  style 0 stroke:#2c3143,stroke-width:4px;\n  1[\"PubMed query\"];\n  0 -->|output| 1;\n  2[\"PMIDs to PubTator\"];\n  1 -->|output| 2;\n  3[\"simtext_app\"];\n  0 -->|output| 3;\n  2 -->|output| 3;","graph_dot":"digraph main {\n  node [fontname=\"Atkinson Hyperlegible\", shape=box, color=white,style=filled,color=peachpuff,margin=\"0.2,0.2\"];\n  edge [fontname=\"Atkinson Hyperlegible\"];\n  0[color=lightblue,label=\"ℹ️ Input Dataset\\nInput dataset\"]\n  1[label=\"PubMed query\"]\n  0 -> 1 [label=\"output\"]\n  2[label=\"PMIDs to PubTator\"]\n  1 -> 2 [label=\"output\"]\n  3[label=\"simtext_app\"]\n  0 -> 3 [label=\"output\"]\n  2 -> 3 [label=\"output\"]\n}","workflow_tools":["interactive_tool_simtext_app","toolshed.g2.bx.psu.edu/repos/iuc/pmids_to_pubtator_matrix/pmids_to_pubtator_matrix/0.0.2","toolshed.g2.bx.psu.edu/repos/iuc/pubmed_by_queries/pubmed_by_queries/0.0.2"],"inputs":[{"annotation":"","content_id":null,"errors":null,"id":0,"input_connections":{},"inputs":[],"label":null,"name":"Input dataset","outputs":[],"position":{"bottom":302.5,"height":81,"left":399,"right":599,"top":221.5,"width":200,"x":399,"y":221.5},"tool_id":null,"tool_state":"{\"optional\": false}","tool_version":null,"type":"data_input","uuid":"ad71fad8-ef64-470f-891a-257ca4316fd6","workflow_outputs":[]}],"outputs":[{"annotation":"","content_id":"toolshed.g2.bx.psu.edu/repos/iuc/pubmed_by_queries/pubmed_by_queries/0.0.2","errors":null,"id":1,"input_connections":{"input":{"id":0,"output_name":"output"}},"inputs":[],"label":null,"name":"PubMed query","outputs":[{"name":"output","type":"tabular"}],"position":{"bottom":432.5,"height":112,"left":626,"right":826,"top":320.5,"width":200,"x":626,"y":320.5},"post_job_actions":{},"tool_id":"toolshed.g2.bx.psu.edu/repos/iuc/pubmed_by_queries/pubmed_by_queries/0.0.2","tool_shed_repository":{"changeset_revision":"02e46a96e98a","name":"pubmed_by_queries","owner":"iuc","tool_shed":"toolshed.g2.bx.psu.edu"},"tool_state":"{\"abstract\": \"false\", \"input\": {\"__class__\": \"ConnectedValue\"}, \"number\": \"500\", \"__page__\": null, \"__rerun_remap_job_id__\": null}","tool_version":"0.0.2","type":"tool","uuid":"918db7a9-14d9-4cab-85fd-34d8791d28d3","workflow_outputs":[{"label":null,"output_name":"output","uuid":"0813cbe0-f6e4-4e3a-a85b-b443e5f97332"}]},{"annotation":"","content_id":"toolshed.g2.bx.psu.edu/repos/iuc/pmids_to_pubtator_matrix/pmids_to_pubtator_matrix/0.0.2","errors":null,"id":2,"input_connections":{"input":{"id":1,"output_name":"output"}},"inputs":[],"label":null,"name":"PMIDs to PubTator","outputs":[{"name":"output","type":"tabular"}],"position":{"bottom":432.5,"height":112,"left":854,"right":1054,"top":320.5,"width":200,"x":854,"y":320.5},"post_job_actions":{},"tool_id":"toolshed.g2.bx.psu.edu/repos/iuc/pmids_to_pubtator_matrix/pmids_to_pubtator_matrix/0.0.2","tool_shed_repository":{"changeset_revision":"69714f06f18b","name":"pmids_to_pubtator_matrix","owner":"iuc","tool_shed":"toolshed.g2.bx.psu.edu"},"tool_state":"{\"byid\": \"false\", \"categories\": [\"Gene\", \"Disease\"], \"input\": {\"__class__\": \"ConnectedValue\"}, \"number\": \"100\", \"__page__\": null, \"__rerun_remap_job_id__\": null}","tool_version":"0.0.2","type":"tool","uuid":"4ffbee0f-d699-49e3-bf5d-50520d273ab1","workflow_outputs":[{"label":null,"output_name":"output","uuid":"02b09bfc-bfc1-47d7-b389-04d926e6b5b8"}]},{"annotation":"","content_id":"interactive_tool_simtext_app","errors":null,"id":3,"input_connections":{"input":{"id":0,"output_name":"output"},"matrix":{"id":2,"output_name":"output"}},"inputs":[],"label":null,"name":"simtext_app","outputs":[{"name":"output","type":"tabular"}],"position":{"bottom":346.5,"height":122,"left":1089,"right":1289,"top":224.5,"width":200,"x":1089,"y":224.5},"post_job_actions":{},"tool_id":"interactive_tool_simtext_app","tool_state":"{\"input\": {\"__class__\": \"ConnectedValue\"}, \"matrix\": {\"__class__\": \"ConnectedValue\"}, \"__page__\": null, \"__rerun_remap_job_id__\": null}","tool_version":"0.0.2","type":"tool","uuid":"aa5c3877-6243-4a19-92a6-3530c2f57d22","workflow_outputs":[{"label":null,"output_name":"output","uuid":"05e1fd38-276e-42d0-9c9c-60ed7c2c22c9"}]}]}],"api":"https://training.galaxyproject.org/training-material/api/topics/statistics/tutorials/text-mining_simtext/tutorial.json","tools":["interactive_tool_simtext_app","toolshed.g2.bx.psu.edu/repos/iuc/pmids_to_pubtator_matrix/pmids_to_pubtator_matrix/0.0.2","toolshed.g2.bx.psu.edu/repos/iuc/pubmed_by_queries/pubmed_by_queries/0.0.2"],"supported_servers":{"exact":[{"url":"https://usegalaxy.eu","name":"UseGalaxy.eu","usegalaxy":true}],"inexact":[]},"supported_servers_matrix":{"servers":[{"url":"http://apostl.moffitt.org/","name":"APOSTL"},{"url":"http://smile.hku.hk/SARGs","name":"ARGs-OAP"},{"url":"https://iris.angers.inra.fr/galaxypub-cfbp","name":"CIRM-CFBP"},{"url":"https://vm-chemflow-francegrille.eu/","name":"ChemFlow"},{"url":"https://hyperbrowser.uio.no/coloc-stats","name":"Coloc-stats"},{"url":"https://coralsnp.science.psu.edu/galaxy/","name":"CoralSNP"},{"url":"http://cropgalaxy.excellenceinbreeding.org/","name":"CropGalaxy"},{"url":"http://dintor.eurac.edu/","name":"Dintor"},{"url":"http://www.freebioinfo.org/","name":"FreeBioinfo"},{"url":"http://igg.cloud.ba.infn.it/galaxy","name":"GASLINI"},{"url":"https://galaxy.mesocentre.uca.fr","name":"Galaxy@AuBi","usegalaxy":false},{"url":"https://galaxy.pasteur.fr/","name":"Galaxy@Pasteur","usegalaxy":false},{"url":"https://galaxytrakr.org/","name":"GalaxyTrakr","usegalaxy":false},{"url":"http://hyperbrowser.uio.no/hb/","name":"Genomic Hyperbrowser"},{"url":"http://gigagalaxy.net/","name":"GigaGalaxy"},{"url":"https://galaxy-web.ipk-gatersleben.de","name":"IPK Galaxy Blast Suite"},{"url":"https://www.immportgalaxy.org/","name":"ImmPort Galaxy"},{"url":"http://galaxy.interactomix.com/","name":"InteractoMIX"},{"url":"http://galaxy.ul.edu.lb/","name":"Lebanese University Galaxy"},{"url":"https://mississippi.sorbonne-universite.fr","name":"MISSISSIPPI","usegalaxy":false},{"url":"https://neo.engr.uconn.edu/","name":"Mandoiu Lab"},{"url":"http://mapping-by-sequencing.vm.uni-freiburg.de:8080/","name":"MiModD NacreousMap"},{"url":"http://galaxy.inf.ethz.ch","name":"Oqtans"},{"url":"https://palfinder.ls.manchester.ac.uk/","name":"Palfinder"},{"url":"http://pepsimili.e-nios.com:8080/","name":"PepSimili","usegalaxy":false},{"url":"https://usegalaxy.be/","name":"UseGalaxy.be","usegalaxy":false},{"url":"https://usegalaxy.cz/","name":"UseGalaxy.cz","usegalaxy":false},{"url":"https://usegalaxy.eu","name":"UseGalaxy.eu","usegalaxy":true},{"url":"https://usegalaxy.fr/","name":"UseGalaxy.fr","usegalaxy":false},{"url":"https://usegalaxy.no/","name":"UseGalaxy.no","usegalaxy":false},{"url":"https://usegalaxy.org","name":"UseGalaxy.org (Main)","usegalaxy":true},{"url":"https://usegalaxy.org.au","name":"UseGalaxy.org.au","usegalaxy":true},{"url":"https://viralvariant.anses.fr/","name":"Viral Variant Visualizer (VVV)"}],"tools":[{"id":"interactive_tool_simtext_app","servers":[{"state":"missing","server":"http://apostl.moffitt.org/"},{"state":"missing","server":"http://smile.hku.hk/SARGs"},{"state":"missing","server":"https://iris.angers.inra.fr/galaxypub-cfbp"},{"state":"missing","server":"https://vm-chemflow-francegrille.eu/"},{"state":"missing","server":"https://hyperbrowser.uio.no/coloc-stats"},{"state":"missing","server":"https://coralsnp.science.psu.edu/galaxy/"},{"state":"missing","server":"http://cropgalaxy.excellenceinbreeding.org/"},{"state":"missing","server":"http://dintor.eurac.edu/"},{"state":"missing","server":"http://www.freebioinfo.org/"},{"state":"missing","server":"http://igg.cloud.ba.infn.it/galaxy"},{"state":"missing","server":"https://galaxy.mesocentre.uca.fr"},{"state":"missing","server":"https://galaxy.pasteur.fr/"},{"state":"missing","server":"https://galaxytrakr.org/"},{"state":"missing","server":"http://hyperbrowser.uio.no/hb/"},{"state":"missing","server":"http://gigagalaxy.net/"},{"state":"missing","server":"https://galaxy-web.ipk-gatersleben.de"},{"state":"missing","server":"https://www.immportgalaxy.org/"},{"state":"missing","server":"http://galaxy.interactomix.com/"},{"state":"missing","server":"http://galaxy.ul.edu.lb/"},{"state":"missing","server":"https://mississippi.sorbonne-universite.fr"},{"state":"missing","server":"https://neo.engr.uconn.edu/"},{"state":"missing","server":"http://mapping-by-sequencing.vm.uni-freiburg.de:8080/"},{"state":"missing","server":"http://galaxy.inf.ethz.ch"},{"state":"missing","server":"https://palfinder.ls.manchester.ac.uk/"},{"state":"missing","server":"http://pepsimili.e-nios.com:8080/"},{"state":"missing","server":"https://usegalaxy.be/"},{"state":"missing","server":"https://usegalaxy.cz/"},{"state":"local","server":"https://usegalaxy.eu"},{"state":"missing","server":"https://usegalaxy.fr/"},{"state":"missing","server":"https://usegalaxy.no/"},{"state":"missing","server":"https://usegalaxy.org"},{"state":"missing","server":"https://usegalaxy.org.au"},{"state":"missing","server":"https://viralvariant.anses.fr/"}],"version":"local"},{"id":"toolshed.g2.bx.psu.edu/repos/iuc/pmids_to_pubtator_matrix/pmids_to_pubtator_matrix/0.0.2","servers":[{"state":"missing","server":"http://apostl.moffitt.org/"},{"state":"missing","server":"http://smile.hku.hk/SARGs"},{"state":"missing","server":"https://iris.angers.inra.fr/galaxypub-cfbp"},{"state":"missing","server":"https://vm-chemflow-francegrille.eu/"},{"state":"missing","server":"https://hyperbrowser.uio.no/coloc-stats"},{"state":"missing","server":"https://coralsnp.science.psu.edu/galaxy/"},{"state":"missing","server":"http://cropgalaxy.excellenceinbreeding.org/"},{"state":"missing","server":"http://dintor.eurac.edu/"},{"state":"missing","server":"http://www.freebioinfo.org/"},{"state":"missing","server":"http://igg.cloud.ba.infn.it/galaxy"},{"state":"missing","server":"https://galaxy.mesocentre.uca.fr"},{"state":"missing","server":"https://galaxy.pasteur.fr/"},{"state":"missing","server":"https://galaxytrakr.org/"},{"state":"missing","server":"http://hyperbrowser.uio.no/hb/"},{"state":"missing","server":"http://gigagalaxy.net/"},{"state":"missing","server":"https://galaxy-web.ipk-gatersleben.de"},{"state":"missing","server":"https://www.immportgalaxy.org/"},{"state":"missing","server":"http://galaxy.interactomix.com/"},{"state":"missing","server":"http://galaxy.ul.edu.lb/"},{"state":"missing","server":"https://mississippi.sorbonne-universite.fr"},{"state":"missing","server":"https://neo.engr.uconn.edu/"},{"state":"missing","server":"http://mapping-by-sequencing.vm.uni-freiburg.de:8080/"},{"state":"missing","server":"http://galaxy.inf.ethz.ch"},{"state":"missing","server":"https://palfinder.ls.manchester.ac.uk/"},{"state":"missing","server":"http://pepsimili.e-nios.com:8080/"},{"state":"missing","server":"https://usegalaxy.be/"},{"state":"exact","version":"0.0.2","server":"https://usegalaxy.cz/"},{"state":"exact","version":"0.0.2","server":"https://usegalaxy.eu"},{"state":"missing","server":"https://usegalaxy.fr/"},{"state":"missing","server":"https://usegalaxy.no/"},{"state":"missing","server":"https://usegalaxy.org"},{"state":"exact","version":"0.0.2","server":"https://usegalaxy.org.au"},{"state":"missing","server":"https://viralvariant.anses.fr/"}],"version":"0.0.2"},{"id":"toolshed.g2.bx.psu.edu/repos/iuc/pubmed_by_queries/pubmed_by_queries/0.0.2","servers":[{"state":"missing","server":"http://apostl.moffitt.org/"},{"state":"missing","server":"http://smile.hku.hk/SARGs"},{"state":"missing","server":"https://iris.angers.inra.fr/galaxypub-cfbp"},{"state":"missing","server":"https://vm-chemflow-francegrille.eu/"},{"state":"missing","server":"https://hyperbrowser.uio.no/coloc-stats"},{"state":"missing","server":"https://coralsnp.science.psu.edu/galaxy/"},{"state":"missing","server":"http://cropgalaxy.excellenceinbreeding.org/"},{"state":"missing","server":"http://dintor.eurac.edu/"},{"state":"missing","server":"http://www.freebioinfo.org/"},{"state":"missing","server":"http://igg.cloud.ba.infn.it/galaxy"},{"state":"missing","server":"https://galaxy.mesocentre.uca.fr"},{"state":"missing","server":"https://galaxy.pasteur.fr/"},{"state":"missing","server":"https://galaxytrakr.org/"},{"state":"missing","server":"http://hyperbrowser.uio.no/hb/"},{"state":"missing","server":"http://gigagalaxy.net/"},{"state":"missing","server":"https://galaxy-web.ipk-gatersleben.de"},{"state":"missing","server":"https://www.immportgalaxy.org/"},{"state":"missing","server":"http://galaxy.interactomix.com/"},{"state":"missing","server":"http://galaxy.ul.edu.lb/"},{"state":"missing","server":"https://mississippi.sorbonne-universite.fr"},{"state":"missing","server":"https://neo.engr.uconn.edu/"},{"state":"missing","server":"http://mapping-by-sequencing.vm.uni-freiburg.de:8080/"},{"state":"missing","server":"http://galaxy.inf.ethz.ch"},{"state":"missing","server":"https://palfinder.ls.manchester.ac.uk/"},{"state":"missing","server":"http://pepsimili.e-nios.com:8080/"},{"state":"missing","server":"https://usegalaxy.be/"},{"state":"exact","version":"0.0.2","server":"https://usegalaxy.cz/"},{"state":"exact","version":"0.0.2","server":"https://usegalaxy.eu"},{"state":"missing","server":"https://usegalaxy.fr/"},{"state":"missing","server":"https://usegalaxy.no/"},{"state":"missing","server":"https://usegalaxy.org"},{"state":"exact","version":"0.0.2","server":"https://usegalaxy.org.au"},{"state":"missing","server":"https://viralvariant.anses.fr/"}],"version":"0.0.2"}]},"topic_name_human":"Statistics and machine learning","admin_install":{"install_tool_dependencies":true,"install_repository_dependencies":true,"install_resolver_dependencies":true,"tools":[{"name":"pmids_to_pubtator_matrix","owner":"iuc","revisions":"69714f06f18b","tool_panel_section_label":"Other Tools","tool_shed_url":"https://toolshed.g2.bx.psu.edu/"},{"name":"pubmed_by_queries","owner":"iuc","revisions":"02e46a96e98a","tool_panel_section_label":"Other Tools","tool_shed_url":"https://toolshed.g2.bx.psu.edu/"}]},"admin_install_yaml":"---\ninstall_tool_dependencies: true\ninstall_repository_dependencies: true\ninstall_resolver_dependencies: true\ntools:\n- name: pmids_to_pubtator_matrix\n  owner: iuc\n  revisions: 69714f06f18b\n  tool_panel_section_label: Other Tools\n  tool_shed_url: https://toolshed.g2.bx.psu.edu/\n- name: pubmed_by_queries\n  owner: iuc\n  revisions: 02e46a96e98a\n  tool_panel_section_label: Other Tools\n  tool_shed_url: https://toolshed.g2.bx.psu.edu/\n","tours":false,"video":false,"slides_recordings":false,"translations":{"tutorial":[],"slides":[],"video":false},"license":"CC-BY-4.0","type":"tutorial","contributors":[{"name":"Marie Gramm","email":"mgramm2@smail.uni-koeln.de","orcid":"0000-0002-4217-5277","joined":"2021-03","id":"mgramm1","url":"https://training.galaxyproject.org/training-material/api/contributors/mgramm1.json","page":"https://training.galaxyproject.org/training-material/hall-of-fame/mgramm1/"},{"name":"Dennis Lal group","email":"dennislal.group@gmail.com","joined":"2021-03","id":"dlalgroup","url":"https://training.galaxyproject.org/training-material/api/contributors/dlalgroup.json","page":"https://training.galaxyproject.org/training-material/hall-of-fame/dlalgroup/"},{"name":"Daniel Blankenberg","twitter":"dblankenberg","orcid":"0000-0002-6833-9049","joined":"2018-07","id":"blankenberg","url":"https://training.galaxyproject.org/training-material/api/contributors/blankenberg.json","page":"https://training.galaxyproject.org/training-material/hall-of-fame/blankenberg/"},{"name":"Saskia Hiltemann","maintainer_contact":"gitter","email":"saskia.hiltemann@gmail.com","fediverse":"https://mstdn.science/@shiltemann","fediverse_flavor":"mastodon","bluesky":"shiltemann.bsky.social","linkedin":"shiltemann","matrix":"shiltemann:matrix.org","orcid":"0000-0003-3803-468X","joined":"2017-09","bio":"Researcher at Erasmus Medical Center","elixir_node":"nl","contact_for_training":true,"affiliations":["uni-freiburg","nfdi4plants","elixir-europe"],"former_affiliations":["CINECA-Project","gallantries","erasmusmc"],"location":{"country":"NL","lat":51.912,"lon":4.462},"id":"shiltemann","url":"https://training.galaxyproject.org/training-material/api/contributors/shiltemann.json","page":"https://training.galaxyproject.org/training-material/hall-of-fame/shiltemann/"},{"name":"Helena Rasche","orcid":"0000-0001-9760-8992","maintainer_contact":"gitter","matrix":"hexylena:matrix.org","joined":"2017-09","elixir_node":"nl","affiliations":["erasmusmc","gallantries","by-covid","elixir-europe","elixir-converge"],"former_affiliations":["deNBI","avans-atgm","uni-freiburg"],"contact_for_training":false,"location":{"country":"NL","lat":51.91,"lon":4.46},"id":"hexylena","url":"https://training.galaxyproject.org/training-material/api/contributors/hexylena.json","page":"https://training.galaxyproject.org/training-material/hall-of-fame/hexylena/"},{"name":"dlal-group","id":"dlal-group","url":"https://training.galaxyproject.org/training-material/api/contributors/dlal-group.json","page":"https://training.galaxyproject.org/training-material/hall-of-fame/dlal-group/"},{"name":"Björn Grüning","email":"bjoern.gruening@gmail.com","twitter":"bjoerngruening","fediverse":"https://fosstodon.org/@bgruening","fediverse_flavor":"mastodon","matrix":"bgruening:matrix.org","orcid":"0000-0002-3079-6586","elixir_node":"de","linkedin":"bgruening","contact_for_training":true,"joined":"2017-09","location":{"country":"DE","lat":47.997791,"lon":7.842609},"affiliations":["eurosciencegateway","eosc-life","by-covid","deNBI","sfb992","elixir-converge","uni-freiburg","elixir-europe"],"id":"bgruening","url":"https://training.galaxyproject.org/training-material/api/contributors/bgruening.json","page":"https://training.galaxyproject.org/training-material/hall-of-fame/bgruening/"},{"name":"Martin Čech","email":"marten@bx.psu.edu","matrix":"martenson:matrix.org","orcid":"0000-0002-9318-1781","elixir_node":"cz","contact_for_training":true,"location":{"country":"USA","lat":37.0,"lon":-122.0},"fediverse":"https://mastodon.world/@martenson","fediverse_flavor":"mastodon","joined":"2017-09","affiliations":["elixir-europe"],"id":"martenson","url":"https://training.galaxyproject.org/training-material/api/contributors/martenson.json","page":"https://training.galaxyproject.org/training-material/hall-of-fame/martenson/"}]}