{"layout":"tutorial_hands_on","title":"Very Short Introductions: QC","zenodo_link":"https://zenodo.org/records/10870107","questions":["How do I know my sequencing data is good?"],"objectives":["Learn about QCing Illumina and Element data","Learn about fastp","Learn about multiqc"],"time_estimation":"30M","key_points":["Galaxy is an excellent tool for quickly QCing your data"],"subtopic":"core","priority":10,"draft":true,"js_requirements":{"mathjax":7091,"mermaid":false},"short_id":"T00436","symlink":null,"contributions":{"authorship":["nekrut"],"reviewing":["shiltemann","hexylena","bebatut","nekrut","natefoo"]},"url":"/topics/introduction/tutorials/vsi_qc/tutorial.html","topic_name":"introduction","tutorial_name":"vsi_qc","dir":"topics/introduction/tutorials/vsi_qc","id":"introduction/vsi_qc","hands_on":true,"slides":false,"mod_date":"2024-06-25 09:18:34 +0000","pub_date":"2024-03-26 16:02:41 +0000","version":4,"api":"https://training.galaxyproject.org/training-material/api/topics/introduction/tutorials/vsi_qc/tutorial.json","tools":["toolshed.g2.bx.psu.edu/repos/iuc/fastp/fastp/0.23.2+galaxy0","toolshed.g2.bx.psu.edu/repos/iuc/multiqc/multiqc/1.11+galaxy1"],"supported_servers":{"exact":[{"url":"https://galaxy.mesocentre.uca.fr","name":"Galaxy@AuBi","usegalaxy":false},{"url":"https://galaxytrakr.org/","name":"GalaxyTrakr","usegalaxy":false},{"url":"https://usegalaxy.cz/","name":"UseGalaxy.cz","usegalaxy":false},{"url":"https://usegalaxy.eu","name":"UseGalaxy.eu","usegalaxy":true},{"url":"https://usegalaxy.fr/","name":"UseGalaxy.fr","usegalaxy":false},{"url":"https://usegalaxy.org","name":"UseGalaxy.org (Main)","usegalaxy":true},{"url":"https://usegalaxy.org.au","name":"UseGalaxy.org.au","usegalaxy":true}],"inexact":[{"url":"https://mississippi.sorbonne-universite.fr","name":"MISSISSIPPI","usegalaxy":false},{"url":"https://usegalaxy.be/","name":"UseGalaxy.be","usegalaxy":false},{"url":"https://usegalaxy.no/","name":"UseGalaxy.no","usegalaxy":false}]},"supported_servers_matrix":{"servers":[{"url":"http://apostl.moffitt.org/","name":"APOSTL"},{"url":"http://smile.hku.hk/SARGs","name":"ARGs-OAP"},{"url":"https://iris.angers.inra.fr/galaxypub-cfbp","name":"CIRM-CFBP"},{"url":"https://vm-chemflow-francegrille.eu/","name":"ChemFlow"},{"url":"https://hyperbrowser.uio.no/coloc-stats","name":"Coloc-stats"},{"url":"https://coralsnp.science.psu.edu/galaxy/","name":"CoralSNP"},{"url":"http://cropgalaxy.excellenceinbreeding.org/","name":"CropGalaxy"},{"url":"http://dintor.eurac.edu/","name":"Dintor"},{"url":"http://www.freebioinfo.org/","name":"FreeBioinfo"},{"url":"http://igg.cloud.ba.infn.it/galaxy","name":"GASLINI"},{"url":"https://galaxy.mesocentre.uca.fr","name":"Galaxy@AuBi","usegalaxy":false},{"url":"https://galaxy.pasteur.fr/","name":"Galaxy@Pasteur","usegalaxy":false},{"url":"https://galaxytrakr.org/","name":"GalaxyTrakr","usegalaxy":false},{"url":"http://hyperbrowser.uio.no/hb/","name":"Genomic Hyperbrowser"},{"url":"http://gigagalaxy.net/","name":"GigaGalaxy"},{"url":"https://galaxy-web.ipk-gatersleben.de","name":"IPK Galaxy Blast Suite"},{"url":"https://www.immportgalaxy.org/","name":"ImmPort Galaxy"},{"url":"http://galaxy.interactomix.com/","name":"InteractoMIX"},{"url":"http://galaxy.ul.edu.lb/","name":"Lebanese University Galaxy"},{"url":"https://mississippi.sorbonne-universite.fr","name":"MISSISSIPPI","usegalaxy":false},{"url":"https://neo.engr.uconn.edu/","name":"Mandoiu Lab"},{"url":"http://mapping-by-sequencing.vm.uni-freiburg.de:8080/","name":"MiModD NacreousMap"},{"url":"http://galaxy.inf.ethz.ch","name":"Oqtans"},{"url":"https://palfinder.ls.manchester.ac.uk/","name":"Palfinder"},{"url":"http://pepsimili.e-nios.com:8080/","name":"PepSimili","usegalaxy":false},{"url":"https://galaxy.bio.di.uminho.pt/","name":"PhagePromotor","usegalaxy":false},{"url":"https://usegalaxy.be/","name":"UseGalaxy.be","usegalaxy":false},{"url":"https://usegalaxy.cz/","name":"UseGalaxy.cz","usegalaxy":false},{"url":"https://usegalaxy.eu","name":"UseGalaxy.eu","usegalaxy":true},{"url":"https://usegalaxy.fr/","name":"UseGalaxy.fr","usegalaxy":false},{"url":"https://usegalaxy.no/","name":"UseGalaxy.no","usegalaxy":false},{"url":"https://usegalaxy.org","name":"UseGalaxy.org (Main)","usegalaxy":true},{"url":"https://usegalaxy.org.au","name":"UseGalaxy.org.au","usegalaxy":true},{"url":"https://viralvariant.anses.fr/","name":"Viral Variant Visualizer (VVV)"}],"tools":[{"id":"toolshed.g2.bx.psu.edu/repos/iuc/fastp/fastp/0.23.2+galaxy0","servers":[{"state":"missing","server":"http://apostl.moffitt.org/"},{"state":"missing","server":"http://smile.hku.hk/SARGs"},{"state":"missing","server":"https://iris.angers.inra.fr/galaxypub-cfbp"},{"state":"missing","server":"https://vm-chemflow-francegrille.eu/"},{"state":"missing","server":"https://hyperbrowser.uio.no/coloc-stats"},{"state":"missing","server":"https://coralsnp.science.psu.edu/galaxy/"},{"state":"missing","server":"http://cropgalaxy.excellenceinbreeding.org/"},{"state":"missing","server":"http://dintor.eurac.edu/"},{"state":"missing","server":"http://www.freebioinfo.org/"},{"state":"missing","server":"http://igg.cloud.ba.infn.it/galaxy"},{"state":"exact","version":"0.23.2+galaxy0","server":"https://galaxy.mesocentre.uca.fr"},{"state":"exact","version":"0.23.2+galaxy0","server":"https://galaxy.pasteur.fr/"},{"state":"exact","version":"0.23.2+galaxy0","server":"https://galaxytrakr.org/"},{"state":"missing","server":"http://hyperbrowser.uio.no/hb/"},{"state":"missing","server":"http://gigagalaxy.net/"},{"state":"missing","server":"https://galaxy-web.ipk-gatersleben.de"},{"state":"missing","server":"https://www.immportgalaxy.org/"},{"state":"missing","server":"http://galaxy.interactomix.com/"},{"state":"missing","server":"http://galaxy.ul.edu.lb/"},{"state":"inexact","versions":["0.23.4+galaxy0"],"server":"https://mississippi.sorbonne-universite.fr"},{"state":"missing","server":"https://neo.engr.uconn.edu/"},{"state":"missing","server":"http://mapping-by-sequencing.vm.uni-freiburg.de:8080/"},{"state":"missing","server":"http://galaxy.inf.ethz.ch"},{"state":"missing","server":"https://palfinder.ls.manchester.ac.uk/"},{"state":"missing","server":"http://pepsimili.e-nios.com:8080/"},{"state":"missing","server":"https://galaxy.bio.di.uminho.pt/"},{"state":"inexact","versions":["0.19.5+galaxy1","0.20.1+galaxy0","0.18.0.0","0.19.3.3","0.12.4.0","0.19.3.2","0.19.5"],"server":"https://usegalaxy.be/"},{"state":"exact","version":"0.23.2+galaxy0","server":"https://usegalaxy.cz/"},{"state":"exact","version":"0.23.2+galaxy0","server":"https://usegalaxy.eu"},{"state":"exact","version":"0.23.2+galaxy0","server":"https://usegalaxy.fr/"},{"state":"exact","version":"0.23.2+galaxy0","server":"https://usegalaxy.no/"},{"state":"exact","version":"0.23.2+galaxy0","server":"https://usegalaxy.org"},{"state":"exact","version":"0.23.2+galaxy0","server":"https://usegalaxy.org.au"},{"state":"exact","version":"0.23.2+galaxy0","server":"https://viralvariant.anses.fr/"}],"version":"0.23.2+galaxy0"},{"id":"toolshed.g2.bx.psu.edu/repos/iuc/multiqc/multiqc/1.11+galaxy1","servers":[{"state":"missing","server":"http://apostl.moffitt.org/"},{"state":"missing","server":"http://smile.hku.hk/SARGs"},{"state":"missing","server":"https://iris.angers.inra.fr/galaxypub-cfbp"},{"state":"missing","server":"https://vm-chemflow-francegrille.eu/"},{"state":"missing","server":"https://hyperbrowser.uio.no/coloc-stats"},{"state":"missing","server":"https://coralsnp.science.psu.edu/galaxy/"},{"state":"missing","server":"http://cropgalaxy.excellenceinbreeding.org/"},{"state":"missing","server":"http://dintor.eurac.edu/"},{"state":"missing","server":"http://www.freebioinfo.org/"},{"state":"missing","server":"http://igg.cloud.ba.infn.it/galaxy"},{"state":"exact","version":"1.11+galaxy1","server":"https://galaxy.mesocentre.uca.fr"},{"state":"missing","server":"https://galaxy.pasteur.fr/"},{"state":"exact","version":"1.11+galaxy1","server":"https://galaxytrakr.org/"},{"state":"missing","server":"http://hyperbrowser.uio.no/hb/"},{"state":"missing","server":"http://gigagalaxy.net/"},{"state":"missing","server":"https://galaxy-web.ipk-gatersleben.de"},{"state":"missing","server":"https://www.immportgalaxy.org/"},{"state":"missing","server":"http://galaxy.interactomix.com/"},{"state":"missing","server":"http://galaxy.ul.edu.lb/"},{"state":"exact","version":"1.11+galaxy1","server":"https://mississippi.sorbonne-universite.fr"},{"state":"missing","server":"https://neo.engr.uconn.edu/"},{"state":"missing","server":"http://mapping-by-sequencing.vm.uni-freiburg.de:8080/"},{"state":"missing","server":"http://galaxy.inf.ethz.ch"},{"state":"missing","server":"https://palfinder.ls.manchester.ac.uk/"},{"state":"missing","server":"http://pepsimili.e-nios.com:8080/"},{"state":"exact","version":"1.11+galaxy1","server":"https://galaxy.bio.di.uminho.pt/"},{"state":"inexact","versions":["1.9","1.8+galaxy0"],"server":"https://usegalaxy.be/"},{"state":"exact","version":"1.11+galaxy1","server":"https://usegalaxy.cz/"},{"state":"exact","version":"1.11+galaxy1","server":"https://usegalaxy.eu"},{"state":"exact","version":"1.11+galaxy1","server":"https://usegalaxy.fr/"},{"state":"inexact","versions":["1.7","1.11+galaxy0","1.9+galaxy1","1.9","1.8+galaxy0","1.7.1","1.8+galaxy1","1.8+galaxy2"],"server":"https://usegalaxy.no/"},{"state":"exact","version":"1.11+galaxy1","server":"https://usegalaxy.org"},{"state":"exact","version":"1.11+galaxy1","server":"https://usegalaxy.org.au"},{"state":"missing","server":"https://viralvariant.anses.fr/"}],"version":"1.11+galaxy1"}]},"topic_name_human":"Introduction to Galaxy Analyses","admin_install":{"install_tool_dependencies":true,"install_repository_dependencies":true,"install_resolver_dependencies":true,"tools":[{"name":"fastp","owner":"iuc","revisions":"65b93b623c77","tool_panel_section_label":"FASTA/FASTQ","tool_shed_url":"https://toolshed.g2.bx.psu.edu/"},{"name":"multiqc","owner":"iuc","revisions":"abfd8a6544d7","tool_panel_section_label":"Quality Control","tool_shed_url":"https://toolshed.g2.bx.psu.edu/"}]},"admin_install_yaml":"---\ninstall_tool_dependencies: true\ninstall_repository_dependencies: true\ninstall_resolver_dependencies: true\ntools:\n- name: fastp\n  owner: iuc\n  revisions: 65b93b623c77\n  tool_panel_section_label: FASTA/FASTQ\n  tool_shed_url: https://toolshed.g2.bx.psu.edu/\n- name: multiqc\n  owner: iuc\n  revisions: abfd8a6544d7\n  tool_panel_section_label: Quality Control\n  tool_shed_url: https://toolshed.g2.bx.psu.edu/\n","tours":false,"video":false,"slides_recordings":false,"translations":{"tutorial":[],"slides":[],"video":false},"license":"CC-BY-4.0","type":"tutorial","tags":["work-in-progress"],"contributors":[{"name":"Anton Nekrutenko","email":"anton@nekrut.org","joined":"2017-09","id":"nekrut","url":"https://training.galaxyproject.org/training-material/api/contributors/nekrut.json","page":"https://training.galaxyproject.org/training-material/hall-of-fame/nekrut/"},{"name":"Saskia Hiltemann","maintainer_contact":"gitter","email":"saskia.hiltemann@gmail.com","fediverse":"https://mstdn.science/@shiltemann","fediverse_flavor":"mastodon","bluesky":"shiltemann.bsky.social","linkedin":"shiltemann","matrix":"shiltemann:matrix.org","orcid":"0000-0003-3803-468X","joined":"2017-09","bio":"Researcher at Erasmus Medical Center","elixir_node":"nl","contact_for_training":true,"affiliations":["uni-freiburg","nfdi4plants","elixir-europe"],"former_affiliations":["CINECA-Project","gallantries","erasmusmc"],"location":{"country":"NL","lat":51.912,"lon":4.462},"id":"shiltemann","url":"https://training.galaxyproject.org/training-material/api/contributors/shiltemann.json","page":"https://training.galaxyproject.org/training-material/hall-of-fame/shiltemann/"},{"name":"Helena Rasche","orcid":"0000-0001-9760-8992","maintainer_contact":"gitter","matrix":"hexylena:matrix.org","joined":"2017-09","elixir_node":"nl","affiliations":["erasmusmc","gallantries","by-covid","elixir-europe","elixir-converge"],"former_affiliations":["deNBI","avans-atgm","uni-freiburg"],"contact_for_training":false,"location":{"country":"NL","lat":51.91,"lon":4.46},"id":"hexylena","url":"https://training.galaxyproject.org/training-material/api/contributors/hexylena.json","page":"https://training.galaxyproject.org/training-material/hall-of-fame/hexylena/"},{"name":"Bérénice Batut","email":"berenice.batut@gmail.com","twitter":"bebatut","linkedin":"berenicebatut","matrix":"bebatut:matrix.org","orcid":"0000-0001-9852-1987","joined":"2017-09","elixir_node":"fr","contact_for_training":true,"location":{"country":"FR","lat":45.77,"lon":3.08},"fediverse":"https://piaille.fr/@bebatut","fediverse_flavor":"mastodon","affiliations":["gallantries","ifb","elixir-europe"],"id":"bebatut","url":"https://training.galaxyproject.org/training-material/api/contributors/bebatut.json","page":"https://training.galaxyproject.org/training-material/hall-of-fame/bebatut/"},{"name":"Anton Nekrutenko","email":"anton@nekrut.org","joined":"2017-09","id":"nekrut","url":"https://training.galaxyproject.org/training-material/api/contributors/nekrut.json","page":"https://training.galaxyproject.org/training-material/hall-of-fame/nekrut/"},{"name":"Nate Coraor","matrix":"natefoo:matrix.org","twitter":"natefoo","email":"nate@bx.psu.edu","joined":"2017-12","orcid":"0000-0001-8083-2963","id":"natefoo","url":"https://training.galaxyproject.org/training-material/api/contributors/natefoo.json","page":"https://training.galaxyproject.org/training-material/hall-of-fame/natefoo/"}]}