{"layout":"tutorial_hands_on","title":"NCBI BLAST+ against the MAdLand","zenodo_link":"https://zenodo.org/records/7524427","questions":["What is MAdLand DB?","How can we perform Blast analysis on Galaxy?"],"objectives":["Load FASTA sequence into Galaxy","Perform NCBI-Blast+ analysis against MAdLandDB"],"time_estimation":"15m","key_points":["Blast tool searches a database of sequences for similar sequences to a query sequence.","Diamond  quickly aligns large-scale data sets using a compressed version of the reference sequences called a \"database diamond\".","MAdLand is a database of fully sequenced plant and algal genomes, with an emphasis on non-seed plants and streptophyte algae that can be use for sequence similarity search."],"contributions":{"authorship":["deeptivarshney"],"funding":["madland","nfdi4plants"],"reviewing":["shiltemann","deeptivarshney","gallardoalba","bgruening","hexylena"]},"tags":["plants"],"js_requirements":{"mathjax":null,"mermaid":false},"short_id":"T00238","symlink":null,"url":"/topics/sequence-analysis/tutorials/ncbi-blast-against-the-madland/tutorial.html","topic_name":"sequence-analysis","tutorial_name":"ncbi-blast-against-the-madland","dir":"topics/sequence-analysis/tutorials/ncbi-blast-against-the-madland","id":"sequence-analysis/ncbi-blast-against-the-madland","hands_on":true,"slides":false,"mod_date":"2024-07-31 11:26:06 +0000","pub_date":"2023-01-16 08:13:56 +0000","version":9,"api":"https://training.galaxyproject.org/training-material/api/topics/sequence-analysis/tutorials/ncbi-blast-against-the-madland/tutorial.json","tools":["toolshed.g2.bx.psu.edu/repos/bgruening/diamond/bg_diamond/2.0.15+galaxy0","toolshed.g2.bx.psu.edu/repos/devteam/ncbi_blast_plus/ncbi_blastp_wrapper/2.10.1+galaxy2","toolshed.g2.bx.psu.edu/repos/devteam/ncbi_blast_plus/ncbi_blastx_wrapper/2.10.1+galaxy2"],"supported_servers":{"exact":[{"url":"https://usegalaxy.cz/","name":"UseGalaxy.cz","usegalaxy":false},{"url":"https://usegalaxy.eu","name":"UseGalaxy.eu","usegalaxy":true},{"url":"https://usegalaxy.fr/","name":"UseGalaxy.fr","usegalaxy":false},{"url":"https://usegalaxy.org","name":"UseGalaxy.org (Main)","usegalaxy":true},{"url":"https://usegalaxy.org.au","name":"UseGalaxy.org.au","usegalaxy":true}],"inexact":[{"url":"https://galaxy.mesocentre.uca.fr","name":"Galaxy@AuBi","usegalaxy":false},{"url":"https://galaxytrakr.org/","name":"GalaxyTrakr","usegalaxy":false},{"url":"https://usegalaxy.no/","name":"UseGalaxy.no","usegalaxy":false}]},"supported_servers_matrix":{"servers":[{"url":"http://apostl.moffitt.org/","name":"APOSTL"},{"url":"http://smile.hku.hk/SARGs","name":"ARGs-OAP"},{"url":"https://iris.angers.inra.fr/galaxypub-cfbp","name":"CIRM-CFBP"},{"url":"https://vm-chemflow-francegrille.eu/","name":"ChemFlow"},{"url":"https://hyperbrowser.uio.no/coloc-stats","name":"Coloc-stats"},{"url":"https://coralsnp.science.psu.edu/galaxy/","name":"CoralSNP"},{"url":"http://cropgalaxy.excellenceinbreeding.org/","name":"CropGalaxy"},{"url":"http://dintor.eurac.edu/","name":"Dintor"},{"url":"http://www.freebioinfo.org/","name":"FreeBioinfo"},{"url":"http://igg.cloud.ba.infn.it/galaxy","name":"GASLINI"},{"url":"https://galaxy.mesocentre.uca.fr","name":"Galaxy@AuBi","usegalaxy":false},{"url":"https://galaxy.pasteur.fr/","name":"Galaxy@Pasteur","usegalaxy":false},{"url":"https://galaxytrakr.org/","name":"GalaxyTrakr","usegalaxy":false},{"url":"http://hyperbrowser.uio.no/hb/","name":"Genomic Hyperbrowser"},{"url":"http://gigagalaxy.net/","name":"GigaGalaxy"},{"url":"https://galaxy-web.ipk-gatersleben.de","name":"IPK Galaxy Blast Suite"},{"url":"https://www.immportgalaxy.org/","name":"ImmPort Galaxy"},{"url":"http://galaxy.interactomix.com/","name":"InteractoMIX"},{"url":"http://galaxy.ul.edu.lb/","name":"Lebanese University Galaxy"},{"url":"https://mississippi.sorbonne-universite.fr","name":"MISSISSIPPI","usegalaxy":false},{"url":"https://neo.engr.uconn.edu/","name":"Mandoiu Lab"},{"url":"http://mapping-by-sequencing.vm.uni-freiburg.de:8080/","name":"MiModD NacreousMap"},{"url":"http://galaxy.inf.ethz.ch","name":"Oqtans"},{"url":"https://palfinder.ls.manchester.ac.uk/","name":"Palfinder"},{"url":"http://pepsimili.e-nios.com:8080/","name":"PepSimili","usegalaxy":false},{"url":"https://galaxy.bio.di.uminho.pt/","name":"PhagePromotor","usegalaxy":false},{"url":"https://usegalaxy.be/","name":"UseGalaxy.be","usegalaxy":false},{"url":"https://usegalaxy.cz/","name":"UseGalaxy.cz","usegalaxy":false},{"url":"https://usegalaxy.eu","name":"UseGalaxy.eu","usegalaxy":true},{"url":"https://usegalaxy.fr/","name":"UseGalaxy.fr","usegalaxy":false},{"url":"https://usegalaxy.no/","name":"UseGalaxy.no","usegalaxy":false},{"url":"https://usegalaxy.org","name":"UseGalaxy.org (Main)","usegalaxy":true},{"url":"https://usegalaxy.org.au","name":"UseGalaxy.org.au","usegalaxy":true},{"url":"https://viralvariant.anses.fr/","name":"Viral Variant Visualizer (VVV)"}],"tools":[{"id":"toolshed.g2.bx.psu.edu/repos/bgruening/diamond/bg_diamond/2.0.15+galaxy0","servers":[{"state":"missing","server":"http://apostl.moffitt.org/"},{"state":"missing","server":"http://smile.hku.hk/SARGs"},{"state":"missing","server":"https://iris.angers.inra.fr/galaxypub-cfbp"},{"state":"missing","server":"https://vm-chemflow-francegrille.eu/"},{"state":"missing","server":"https://hyperbrowser.uio.no/coloc-stats"},{"state":"missing","server":"https://coralsnp.science.psu.edu/galaxy/"},{"state":"missing","server":"http://cropgalaxy.excellenceinbreeding.org/"},{"state":"missing","server":"http://dintor.eurac.edu/"},{"state":"missing","server":"http://www.freebioinfo.org/"},{"state":"missing","server":"http://igg.cloud.ba.infn.it/galaxy"},{"state":"inexact","versions":["2.0.8.0"],"server":"https://galaxy.mesocentre.uca.fr"},{"state":"missing","server":"https://galaxy.pasteur.fr/"},{"state":"inexact","versions":["2.0.8.0"],"server":"https://galaxytrakr.org/"},{"state":"missing","server":"http://hyperbrowser.uio.no/hb/"},{"state":"missing","server":"http://gigagalaxy.net/"},{"state":"exact","version":"2.0.15+galaxy0","server":"https://galaxy-web.ipk-gatersleben.de"},{"state":"missing","server":"https://www.immportgalaxy.org/"},{"state":"missing","server":"http://galaxy.interactomix.com/"},{"state":"missing","server":"http://galaxy.ul.edu.lb/"},{"state":"missing","server":"https://mississippi.sorbonne-universite.fr"},{"state":"missing","server":"https://neo.engr.uconn.edu/"},{"state":"missing","server":"http://mapping-by-sequencing.vm.uni-freiburg.de:8080/"},{"state":"missing","server":"http://galaxy.inf.ethz.ch"},{"state":"missing","server":"https://palfinder.ls.manchester.ac.uk/"},{"state":"missing","server":"http://pepsimili.e-nios.com:8080/"},{"state":"missing","server":"https://galaxy.bio.di.uminho.pt/"},{"state":"missing","server":"https://usegalaxy.be/"},{"state":"exact","version":"2.0.15+galaxy0","server":"https://usegalaxy.cz/"},{"state":"exact","version":"2.0.15+galaxy0","server":"https://usegalaxy.eu"},{"state":"exact","version":"2.0.15+galaxy0","server":"https://usegalaxy.fr/"},{"state":"exact","version":"2.0.15+galaxy0","server":"https://usegalaxy.no/"},{"state":"exact","version":"2.0.15+galaxy0","server":"https://usegalaxy.org"},{"state":"exact","version":"2.0.15+galaxy0","server":"https://usegalaxy.org.au"},{"state":"missing","server":"https://viralvariant.anses.fr/"}],"version":"2.0.15+galaxy0"},{"id":"toolshed.g2.bx.psu.edu/repos/devteam/ncbi_blast_plus/ncbi_blastp_wrapper/2.10.1+galaxy2","servers":[{"state":"missing","server":"http://apostl.moffitt.org/"},{"state":"missing","server":"http://smile.hku.hk/SARGs"},{"state":"missing","server":"https://iris.angers.inra.fr/galaxypub-cfbp"},{"state":"missing","server":"https://vm-chemflow-francegrille.eu/"},{"state":"missing","server":"https://hyperbrowser.uio.no/coloc-stats"},{"state":"missing","server":"https://coralsnp.science.psu.edu/galaxy/"},{"state":"missing","server":"http://cropgalaxy.excellenceinbreeding.org/"},{"state":"missing","server":"http://dintor.eurac.edu/"},{"state":"missing","server":"http://www.freebioinfo.org/"},{"state":"missing","server":"http://igg.cloud.ba.infn.it/galaxy"},{"state":"exact","version":"2.10.1+galaxy2","server":"https://galaxy.mesocentre.uca.fr"},{"state":"missing","server":"https://galaxy.pasteur.fr/"},{"state":"inexact","versions":["0.3.3","2.10.1+galaxy1","2.14.1+galaxy2"],"server":"https://galaxytrakr.org/"},{"state":"missing","server":"http://hyperbrowser.uio.no/hb/"},{"state":"missing","server":"http://gigagalaxy.net/"},{"state":"missing","server":"https://galaxy-web.ipk-gatersleben.de"},{"state":"missing","server":"https://www.immportgalaxy.org/"},{"state":"missing","server":"http://galaxy.interactomix.com/"},{"state":"missing","server":"http://galaxy.ul.edu.lb/"},{"state":"inexact","versions":["2.14.1+galaxy2"],"server":"https://mississippi.sorbonne-universite.fr"},{"state":"missing","server":"https://neo.engr.uconn.edu/"},{"state":"missing","server":"http://mapping-by-sequencing.vm.uni-freiburg.de:8080/"},{"state":"missing","server":"http://galaxy.inf.ethz.ch"},{"state":"missing","server":"https://palfinder.ls.manchester.ac.uk/"},{"state":"inexact","versions":["2.14.1+galaxy1"],"server":"http://pepsimili.e-nios.com:8080/"},{"state":"inexact","versions":["2.10.1+galaxy0"],"server":"https://galaxy.bio.di.uminho.pt/"},{"state":"inexact","versions":["0.3.1","0.3.3","2.14.1+galaxy2","0.3.0","0.0.11","0.1.07"],"server":"https://usegalaxy.be/"},{"state":"exact","version":"2.10.1+galaxy2","server":"https://usegalaxy.cz/"},{"state":"exact","version":"2.10.1+galaxy2","server":"https://usegalaxy.eu"},{"state":"exact","version":"2.10.1+galaxy2","server":"https://usegalaxy.fr/"},{"state":"inexact","versions":["2.10.1+galaxy0"],"server":"https://usegalaxy.no/"},{"state":"exact","version":"2.10.1+galaxy2","server":"https://usegalaxy.org"},{"state":"exact","version":"2.10.1+galaxy2","server":"https://usegalaxy.org.au"},{"state":"missing","server":"https://viralvariant.anses.fr/"}],"version":"2.10.1+galaxy2"},{"id":"toolshed.g2.bx.psu.edu/repos/devteam/ncbi_blast_plus/ncbi_blastx_wrapper/2.10.1+galaxy2","servers":[{"state":"missing","server":"http://apostl.moffitt.org/"},{"state":"missing","server":"http://smile.hku.hk/SARGs"},{"state":"missing","server":"https://iris.angers.inra.fr/galaxypub-cfbp"},{"state":"missing","server":"https://vm-chemflow-francegrille.eu/"},{"state":"missing","server":"https://hyperbrowser.uio.no/coloc-stats"},{"state":"missing","server":"https://coralsnp.science.psu.edu/galaxy/"},{"state":"missing","server":"http://cropgalaxy.excellenceinbreeding.org/"},{"state":"missing","server":"http://dintor.eurac.edu/"},{"state":"missing","server":"http://www.freebioinfo.org/"},{"state":"missing","server":"http://igg.cloud.ba.infn.it/galaxy"},{"state":"exact","version":"2.10.1+galaxy2","server":"https://galaxy.mesocentre.uca.fr"},{"state":"missing","server":"https://galaxy.pasteur.fr/"},{"state":"inexact","versions":["2.10.1+galaxy1","0.3.3","2.14.1+galaxy2"],"server":"https://galaxytrakr.org/"},{"state":"missing","server":"http://hyperbrowser.uio.no/hb/"},{"state":"missing","server":"http://gigagalaxy.net/"},{"state":"missing","server":"https://galaxy-web.ipk-gatersleben.de"},{"state":"missing","server":"https://www.immportgalaxy.org/"},{"state":"missing","server":"http://galaxy.interactomix.com/"},{"state":"missing","server":"http://galaxy.ul.edu.lb/"},{"state":"inexact","versions":["2.14.1+galaxy2"],"server":"https://mississippi.sorbonne-universite.fr"},{"state":"missing","server":"https://neo.engr.uconn.edu/"},{"state":"missing","server":"http://mapping-by-sequencing.vm.uni-freiburg.de:8080/"},{"state":"missing","server":"http://galaxy.inf.ethz.ch"},{"state":"missing","server":"https://palfinder.ls.manchester.ac.uk/"},{"state":"inexact","versions":["2.14.1+galaxy1"],"server":"http://pepsimili.e-nios.com:8080/"},{"state":"inexact","versions":["2.10.1+galaxy0"],"server":"https://galaxy.bio.di.uminho.pt/"},{"state":"inexact","versions":["0.3.1","0.3.3","2.14.1+galaxy2","0.0.11","0.3.0","0.1.07"],"server":"https://usegalaxy.be/"},{"state":"exact","version":"2.10.1+galaxy2","server":"https://usegalaxy.cz/"},{"state":"exact","version":"2.10.1+galaxy2","server":"https://usegalaxy.eu"},{"state":"exact","version":"2.10.1+galaxy2","server":"https://usegalaxy.fr/"},{"state":"inexact","versions":["2.10.1+galaxy0"],"server":"https://usegalaxy.no/"},{"state":"exact","version":"2.10.1+galaxy2","server":"https://usegalaxy.org"},{"state":"exact","version":"2.10.1+galaxy2","server":"https://usegalaxy.org.au"},{"state":"missing","server":"https://viralvariant.anses.fr/"}],"version":"2.10.1+galaxy2"}]},"topic_name_human":"Sequence analysis","admin_install":{"install_tool_dependencies":true,"install_repository_dependencies":true,"install_resolver_dependencies":true,"tools":[{"name":"diamond","owner":"bgruening","revisions":"e8ac2b53f262","tool_panel_section_label":"NCBI Blast","tool_shed_url":"https://toolshed.g2.bx.psu.edu/"},{"name":"ncbi_blast_plus","owner":"devteam","revisions":"0e3cf9594bb7","tool_panel_section_label":"NCBI Blast","tool_shed_url":"https://toolshed.g2.bx.psu.edu/"},{"name":"ncbi_blast_plus","owner":"devteam","revisions":"0e3cf9594bb7","tool_panel_section_label":"NCBI Blast","tool_shed_url":"https://toolshed.g2.bx.psu.edu/"}]},"admin_install_yaml":"---\ninstall_tool_dependencies: true\ninstall_repository_dependencies: true\ninstall_resolver_dependencies: true\ntools:\n- name: diamond\n  owner: bgruening\n  revisions: e8ac2b53f262\n  tool_panel_section_label: NCBI Blast\n  tool_shed_url: https://toolshed.g2.bx.psu.edu/\n- name: ncbi_blast_plus\n  owner: devteam\n  revisions: 0e3cf9594bb7\n  tool_panel_section_label: NCBI Blast\n  tool_shed_url: https://toolshed.g2.bx.psu.edu/\n- name: ncbi_blast_plus\n  owner: devteam\n  revisions: 0e3cf9594bb7\n  tool_panel_section_label: NCBI Blast\n  tool_shed_url: https://toolshed.g2.bx.psu.edu/\n","tours":false,"video":false,"slides_recordings":false,"translations":{"tutorial":[],"slides":[],"video":false},"license":"CC-BY-4.0","type":"tutorial","contributors":[{"name":"Deepti Varshney","joined":"2022-12","affiliations":["uni-freiburg","elixir-europe"],"id":"deeptivarshney","url":"https://training.galaxyproject.org/training-material/api/contributors/deeptivarshney.json","page":"https://training.galaxyproject.org/training-material/hall-of-fame/deeptivarshney/"},{"short_name":"MAdLand","name":"MAdLand - Molecular Adaptation to Land: plant evolution to change","joined":"2024-07","url":"https://training.galaxyproject.org/training-material/api/organisations/madland.json","avatar":"/training-material/shared/images/logo-madland.jpg","id":"madland","page":"https://training.galaxyproject.org/training-material/hall-of-fame/madland/"},{"short_name":"DataPLANT","name":"DataPLANT (NFDI4Plants)","joined":"2024-07","url":"https://training.galaxyproject.org/training-material/api/organisations/nfdi4plants.json","avatar":"/training-material/shared/images/logo-dataplant.svg","members":["Brilator","CMR248","Freymaurer","Martin-Kuhl","SabrinaZander","shiltemann","StellaEggels"],"id":"nfdi4plants","page":"https://training.galaxyproject.org/training-material/hall-of-fame/nfdi4plants/"},{"name":"Saskia Hiltemann","maintainer_contact":"gitter","email":"saskia.hiltemann@gmail.com","fediverse":"https://mstdn.science/@shiltemann","fediverse_flavor":"mastodon","bluesky":"shiltemann.bsky.social","linkedin":"shiltemann","matrix":"shiltemann:matrix.org","orcid":"0000-0003-3803-468X","joined":"2017-09","bio":"Researcher at Erasmus Medical Center","elixir_node":"nl","contact_for_training":true,"affiliations":["uni-freiburg","nfdi4plants","elixir-europe"],"former_affiliations":["CINECA-Project","gallantries","erasmusmc"],"location":{"country":"NL","lat":51.912,"lon":4.462},"id":"shiltemann","url":"https://training.galaxyproject.org/training-material/api/contributors/shiltemann.json","page":"https://training.galaxyproject.org/training-material/hall-of-fame/shiltemann/"},{"name":"Deepti Varshney","joined":"2022-12","affiliations":["uni-freiburg","elixir-europe"],"id":"deeptivarshney","url":"https://training.galaxyproject.org/training-material/api/contributors/deeptivarshney.json","page":"https://training.galaxyproject.org/training-material/hall-of-fame/deeptivarshney/"},{"name":"Cristóbal Gallardo","joined":"2020-11","elixir_node":"de","orcid":"0000-0002-5752-2155","former_affiliations":["uni-freiburg","elixir-europe"],"id":"gallardoalba","url":"https://training.galaxyproject.org/training-material/api/contributors/gallardoalba.json","page":"https://training.galaxyproject.org/training-material/hall-of-fame/gallardoalba/"},{"name":"Björn Grüning","email":"bjoern.gruening@gmail.com","twitter":"bjoerngruening","fediverse":"https://fosstodon.org/@bgruening","fediverse_flavor":"mastodon","matrix":"bgruening:matrix.org","orcid":"0000-0002-3079-6586","elixir_node":"de","linkedin":"bgruening","contact_for_training":true,"joined":"2017-09","location":{"country":"DE","lat":47.997791,"lon":7.842609},"affiliations":["eurosciencegateway","eosc-life","by-covid","deNBI","sfb992","elixir-converge","uni-freiburg","elixir-europe"],"id":"bgruening","url":"https://training.galaxyproject.org/training-material/api/contributors/bgruening.json","page":"https://training.galaxyproject.org/training-material/hall-of-fame/bgruening/"},{"name":"Helena Rasche","orcid":"0000-0001-9760-8992","maintainer_contact":"gitter","matrix":"hexylena:matrix.org","joined":"2017-09","elixir_node":"nl","affiliations":["erasmusmc","gallantries","by-covid","elixir-europe","elixir-converge"],"former_affiliations":["deNBI","avans-atgm","uni-freiburg"],"contact_for_training":false,"location":{"country":"NL","lat":51.91,"lon":4.46},"id":"hexylena","url":"https://training.galaxyproject.org/training-material/api/contributors/hexylena.json","page":"https://training.galaxyproject.org/training-material/hall-of-fame/hexylena/"}]}