{"layout":"tutorial_hands_on","title":"Submitting sequence data to ENA","zenodo_link":"https://doi.org/10.5281/zenodo.5163611","questions":["How do you submit raw sequence reads and assembled genomes to the European Nucleotide Archive?"],"objectives":["Submit raw sequencing reads and metadata to ENA's test server","Submit consensus sequence and metadata to ENA's test server"],"time_estimation":"1h","level":"Intermediate","key_points":["Use Galaxy's 'ENA Upload tool' to submit raw reads to ENA","Use Galaxy's 'Submit consensus sequence to ENA' tool","You need to include your ENA Webin credentials in Galaxy","For small submission use 'ENA Upload tool' interactive metadata forms feature","For bulk submissions use a spreadsheet metadata template"],"requirements":[{"type":"internal","topic_name":"sequence-analysis","tutorials":["human-reads-removal"]},{"type":"internal","topic_name":"galaxy-interface","tutorials":["collections"]}],"tags":["covid19"],"js_requirements":{"mathjax":null,"mermaid":false},"short_id":"T00159","symlink":null,"contributions":{"authorship":["roncoronimiguel","bedroesb","B0r1sD"],"reviewing":["bedroesb","hexylena","shiltemann","bgruening","beatrizserrano"]},"url":"/topics/galaxy-interface/tutorials/upload-data-to-ena/tutorial.html","topic_name":"galaxy-interface","tutorial_name":"upload-data-to-ena","dir":"topics/galaxy-interface/tutorials/upload-data-to-ena","id":"galaxy-interface/upload-data-to-ena","hands_on":true,"slides":true,"mod_date":"2024-04-04 10:53:05 +0000","pub_date":"2021-08-10 09:29:31 +0000","version":9,"workflows":[{"workflow":"main_workflow.ga","tests":false,"url":"https://training.galaxyproject.org/training-material/topics/galaxy-interface/tutorials/upload-data-to-ena/workflows/main_workflow.ga","url_html":"https://training.galaxyproject.org/training-material/topics/galaxy-interface/tutorials/upload-data-to-ena/workflows/main_workflow.html","path":"topics/galaxy-interface/tutorials/upload-data-to-ena/workflows/main_workflow.ga","wfid":"galaxy-interface-upload-data-to-ena","wfname":"main-workflow","trs_endpoint":"https://training.galaxyproject.org/training-material/api/ga4gh/trs/v2/tools/galaxy-interface-upload-data-to-ena/versions/main-workflow","license":null,"parent_id":"galaxy-interface/upload-data-to-ena","topic_id":"galaxy-interface","tutorial_id":"upload-data-to-ena","creators":[],"name":"GTN_ENA_upload_workflow","title":"GTN_ENA_upload_workflow","version":1,"description":"Submitting SARS-CoV-2 sequences to ENA","tags":["galaxy-interface"],"features":{"report":null,"subworkflows":false,"comments":false,"parameters":false},"workflowhub_id":"1334","history":[{"hash":"f6670f581c4629118c7087a0794564387afeb2e3","unix":"1628583615","message":"rename","short_hash":"f6670f581","num":1}],"test_results":null,"modified":"2024-12-08 00:07:25 +0000","mermaid":"flowchart TD\n  0[\"ENA Upload tool\"];\n  1[\"ENA Upload tool\"];","graph_dot":"digraph main {\n  node [fontname=\"Atkinson Hyperlegible\", shape=box, color=white,style=filled,color=peachpuff,margin=\"0.2,0.2\"];\n  edge [fontname=\"Atkinson Hyperlegible\"];\n  0[label=\"ENA Upload tool\"]\n  1[label=\"ENA Upload tool\"]\n}","workflow_tools":["toolshed.g2.bx.psu.edu/repos/iuc/ena_upload/ena_upload/0.3.2"],"inputs":[],"outputs":[{"annotation":"","content_id":"toolshed.g2.bx.psu.edu/repos/iuc/ena_upload/ena_upload/0.3.2","errors":null,"id":0,"input_connections":{},"inputs":[],"label":null,"name":"ENA Upload tool","outputs":[{"name":"output","type":"txt"},{"name":"studies_table_out","type":"tabular"},{"name":"samples_table_out","type":"tabular"},{"name":"experiments_table_out","type":"tabular"},{"name":"runs_table_out","type":"tabular"}],"position":{"bottom":656.2166748046875,"height":318.7166748046875,"left":701.25,"right":861.25,"top":337.5,"width":160,"x":701.25,"y":337.5},"post_job_actions":{},"tool_id":"toolshed.g2.bx.psu.edu/repos/iuc/ena_upload/ena_upload/0.3.2","tool_shed_repository":{"changeset_revision":"9e2df763086c","name":"ena_upload","owner":"iuc","tool_shed":"toolshed.g2.bx.psu.edu"},"tool_state":"{\"action_options\": {\"action\": \"add\", \"__current_case__\": 0, \"test_submit_parameters\": {\"submit_dev\": \"true\", \"dry_run\": \"true\"}, \"test_submit\": \"False\", \"input_format_conditional\": {\"input_format\": \"build_tables\", \"__current_case__\": 2, \"conditional_viral_metadata\": {\"viral_sample\": \"false\", \"__current_case__\": 1, \"rep_study\": [{\"__index__\": 0, \"study_title\": \"\", \"study_abstract\": \"\", \"study_type\": \"Whole Genome Sequencing\", \"study_pubmed_id\": \"\", \"rep_sample\": [{\"__index__\": 0, \"sample_title\": \"\", \"sample_description\": \"\", \"scientific_name\": \"\", \"tax_id\": \"\", \"rep_experiment\": [{\"__index__\": 0, \"experiment_title\": \"\", \"experiment_design\": \"\", \"library_strategy\": \"WGS\", \"library_source\": \"GENOMIC\", \"library_selection\": \"RANDOM\", \"library_layout\": \"SINGLE\", \"insert_size\": \"0\", \"library_construction_protocol\": \"\", \"platform\": \"ILLUMINA\", \"instrument_model\": \"minION\", \"rep_runs\": [{\"__index__\": 0, \"run_base_name\": \"\", \"upload_files\": {\"__class__\": \"RuntimeValue\"}}]}]}]}]}}, \"center\": \"ELIXIR_BE\"}, \"__page__\": null, \"__rerun_remap_job_id__\": null}","tool_version":"0.3.2","type":"tool","uuid":"40e72cfd-122f-4bef-a4ed-064ff7e14009","workflow_outputs":[{"label":null,"output_name":"output","uuid":"f04d309c-8267-432b-8e43-769c51e8f96a"},{"label":null,"output_name":"runs_table_out","uuid":"33795505-1bfa-4a96-995e-1a989fa5e404"},{"label":null,"output_name":"experiments_table_out","uuid":"b140a301-fac3-4be5-b1bc-652862fb2b3b"},{"label":null,"output_name":"samples_table_out","uuid":"6285b2f0-2646-404d-9711-a94288c11140"},{"label":null,"output_name":"studies_table_out","uuid":"54f2d83c-8dd8-4d3a-be1c-e40f6e567053"}]}]}],"api":"https://training.galaxyproject.org/training-material/api/topics/galaxy-interface/tutorials/upload-data-to-ena/tutorial.json","tools":["toolshed.g2.bx.psu.edu/repos/ieguinoa/ena_webin_cli/ena_webin_cli/7d751b5943b0","toolshed.g2.bx.psu.edu/repos/iuc/ena_upload/ena_upload/0.3.2","toolshed.g2.bx.psu.edu/repos/iuc/ena_upload/ena_upload/0.7.1"],"supported_servers":{"exact":[],"inexact":[]},"supported_servers_matrix":{"servers":[{"url":"http://apostl.moffitt.org/","name":"APOSTL"},{"url":"http://smile.hku.hk/SARGs","name":"ARGs-OAP"},{"url":"https://iris.angers.inra.fr/galaxypub-cfbp","name":"CIRM-CFBP"},{"url":"https://vm-chemflow-francegrille.eu/","name":"ChemFlow"},{"url":"https://hyperbrowser.uio.no/coloc-stats","name":"Coloc-stats"},{"url":"https://coralsnp.science.psu.edu/galaxy/","name":"CoralSNP"},{"url":"http://cropgalaxy.excellenceinbreeding.org/","name":"CropGalaxy"},{"url":"http://dintor.eurac.edu/","name":"Dintor"},{"url":"http://www.freebioinfo.org/","name":"FreeBioinfo"},{"url":"http://igg.cloud.ba.infn.it/galaxy","name":"GASLINI"},{"url":"https://galaxy.mesocentre.uca.fr","name":"Galaxy@AuBi","usegalaxy":false},{"url":"https://galaxy.pasteur.fr/","name":"Galaxy@Pasteur","usegalaxy":false},{"url":"https://galaxytrakr.org/","name":"GalaxyTrakr","usegalaxy":false},{"url":"http://hyperbrowser.uio.no/hb/","name":"Genomic Hyperbrowser"},{"url":"http://gigagalaxy.net/","name":"GigaGalaxy"},{"url":"https://galaxy-web.ipk-gatersleben.de","name":"IPK Galaxy Blast Suite"},{"url":"https://www.immportgalaxy.org/","name":"ImmPort Galaxy"},{"url":"http://galaxy.interactomix.com/","name":"InteractoMIX"},{"url":"http://galaxy.ul.edu.lb/","name":"Lebanese University Galaxy"},{"url":"https://mississippi.sorbonne-universite.fr","name":"MISSISSIPPI","usegalaxy":false},{"url":"https://neo.engr.uconn.edu/","name":"Mandoiu Lab"},{"url":"http://mapping-by-sequencing.vm.uni-freiburg.de:8080/","name":"MiModD NacreousMap"},{"url":"http://galaxy.inf.ethz.ch","name":"Oqtans"},{"url":"https://palfinder.ls.manchester.ac.uk/","name":"Palfinder"},{"url":"http://pepsimili.e-nios.com:8080/","name":"PepSimili","usegalaxy":false},{"url":"https://galaxy.bio.di.uminho.pt/","name":"PhagePromotor","usegalaxy":false},{"url":"https://usegalaxy.be/","name":"UseGalaxy.be","usegalaxy":false},{"url":"https://usegalaxy.cz/","name":"UseGalaxy.cz","usegalaxy":false},{"url":"https://usegalaxy.eu","name":"UseGalaxy.eu","usegalaxy":true},{"url":"https://usegalaxy.fr/","name":"UseGalaxy.fr","usegalaxy":false},{"url":"https://usegalaxy.no/","name":"UseGalaxy.no","usegalaxy":false},{"url":"https://usegalaxy.org","name":"UseGalaxy.org (Main)","usegalaxy":true},{"url":"https://usegalaxy.org.au","name":"UseGalaxy.org.au","usegalaxy":true},{"url":"https://viralvariant.anses.fr/","name":"Viral Variant Visualizer (VVV)"}],"tools":[{"id":"toolshed.g2.bx.psu.edu/repos/ieguinoa/ena_webin_cli/ena_webin_cli/7d751b5943b0","servers":[{"state":"missing","server":"http://apostl.moffitt.org/"},{"state":"missing","server":"http://smile.hku.hk/SARGs"},{"state":"missing","server":"https://iris.angers.inra.fr/galaxypub-cfbp"},{"state":"missing","server":"https://vm-chemflow-francegrille.eu/"},{"state":"missing","server":"https://hyperbrowser.uio.no/coloc-stats"},{"state":"missing","server":"https://coralsnp.science.psu.edu/galaxy/"},{"state":"missing","server":"http://cropgalaxy.excellenceinbreeding.org/"},{"state":"missing","server":"http://dintor.eurac.edu/"},{"state":"missing","server":"http://www.freebioinfo.org/"},{"state":"missing","server":"http://igg.cloud.ba.infn.it/galaxy"},{"state":"missing","server":"https://galaxy.mesocentre.uca.fr"},{"state":"missing","server":"https://galaxy.pasteur.fr/"},{"state":"missing","server":"https://galaxytrakr.org/"},{"state":"missing","server":"http://hyperbrowser.uio.no/hb/"},{"state":"missing","server":"http://gigagalaxy.net/"},{"state":"missing","server":"https://galaxy-web.ipk-gatersleben.de"},{"state":"missing","server":"https://www.immportgalaxy.org/"},{"state":"missing","server":"http://galaxy.interactomix.com/"},{"state":"missing","server":"http://galaxy.ul.edu.lb/"},{"state":"missing","server":"https://mississippi.sorbonne-universite.fr"},{"state":"missing","server":"https://neo.engr.uconn.edu/"},{"state":"missing","server":"http://mapping-by-sequencing.vm.uni-freiburg.de:8080/"},{"state":"missing","server":"http://galaxy.inf.ethz.ch"},{"state":"missing","server":"https://palfinder.ls.manchester.ac.uk/"},{"state":"missing","server":"http://pepsimili.e-nios.com:8080/"},{"state":"missing","server":"https://galaxy.bio.di.uminho.pt/"},{"state":"missing","server":"https://usegalaxy.be/"},{"state":"missing","server":"https://usegalaxy.cz/"},{"state":"missing","server":"https://usegalaxy.eu"},{"state":"missing","server":"https://usegalaxy.fr/"},{"state":"missing","server":"https://usegalaxy.no/"},{"state":"missing","server":"https://usegalaxy.org"},{"state":"missing","server":"https://usegalaxy.org.au"},{"state":"missing","server":"https://viralvariant.anses.fr/"}],"version":"7d751b5943b0"},{"id":"toolshed.g2.bx.psu.edu/repos/iuc/ena_upload/ena_upload/0.3.2","servers":[{"state":"missing","server":"http://apostl.moffitt.org/"},{"state":"missing","server":"http://smile.hku.hk/SARGs"},{"state":"missing","server":"https://iris.angers.inra.fr/galaxypub-cfbp"},{"state":"missing","server":"https://vm-chemflow-francegrille.eu/"},{"state":"missing","server":"https://hyperbrowser.uio.no/coloc-stats"},{"state":"missing","server":"https://coralsnp.science.psu.edu/galaxy/"},{"state":"missing","server":"http://cropgalaxy.excellenceinbreeding.org/"},{"state":"missing","server":"http://dintor.eurac.edu/"},{"state":"missing","server":"http://www.freebioinfo.org/"},{"state":"missing","server":"http://igg.cloud.ba.infn.it/galaxy"},{"state":"missing","server":"https://galaxy.mesocentre.uca.fr"},{"state":"missing","server":"https://galaxy.pasteur.fr/"},{"state":"missing","server":"https://galaxytrakr.org/"},{"state":"missing","server":"http://hyperbrowser.uio.no/hb/"},{"state":"missing","server":"http://gigagalaxy.net/"},{"state":"missing","server":"https://galaxy-web.ipk-gatersleben.de"},{"state":"missing","server":"https://www.immportgalaxy.org/"},{"state":"missing","server":"http://galaxy.interactomix.com/"},{"state":"missing","server":"http://galaxy.ul.edu.lb/"},{"state":"inexact","versions":["0.7.3+galaxy1"],"server":"https://mississippi.sorbonne-universite.fr"},{"state":"missing","server":"https://neo.engr.uconn.edu/"},{"state":"missing","server":"http://mapping-by-sequencing.vm.uni-freiburg.de:8080/"},{"state":"missing","server":"http://galaxy.inf.ethz.ch"},{"state":"missing","server":"https://palfinder.ls.manchester.ac.uk/"},{"state":"missing","server":"http://pepsimili.e-nios.com:8080/"},{"state":"missing","server":"https://galaxy.bio.di.uminho.pt/"},{"state":"inexact","versions":["0.3.1","0.5.3","0.7.1+galaxy1","0.3"],"server":"https://usegalaxy.be/"},{"state":"inexact","versions":["0.6.1"],"server":"https://usegalaxy.cz/"},{"state":"exact","version":"0.3.2","server":"https://usegalaxy.eu"},{"state":"inexact","versions":["0.7.3+galaxy1","0.3.1","0.5.3","0.7.1+galaxy1","0.6.1","0.6.0","0.4.1","0.6.3+galaxy0","0.3.3","0.4.3","0.7.1+galaxy0"],"server":"https://usegalaxy.fr/"},{"state":"missing","server":"https://usegalaxy.no/"},{"state":"missing","server":"https://usegalaxy.org"},{"state":"inexact","versions":["0.7.3+galaxy1","0.5.3","0.7.1+galaxy1","0.6.1","0.6.0","0.6.3+galaxy0","0.3.3","0.4.3"],"server":"https://usegalaxy.org.au"},{"state":"missing","server":"https://viralvariant.anses.fr/"}],"version":"0.3.2"},{"id":"toolshed.g2.bx.psu.edu/repos/iuc/ena_upload/ena_upload/0.7.1","servers":[{"state":"missing","server":"http://apostl.moffitt.org/"},{"state":"missing","server":"http://smile.hku.hk/SARGs"},{"state":"missing","server":"https://iris.angers.inra.fr/galaxypub-cfbp"},{"state":"missing","server":"https://vm-chemflow-francegrille.eu/"},{"state":"missing","server":"https://hyperbrowser.uio.no/coloc-stats"},{"state":"missing","server":"https://coralsnp.science.psu.edu/galaxy/"},{"state":"missing","server":"http://cropgalaxy.excellenceinbreeding.org/"},{"state":"missing","server":"http://dintor.eurac.edu/"},{"state":"missing","server":"http://www.freebioinfo.org/"},{"state":"missing","server":"http://igg.cloud.ba.infn.it/galaxy"},{"state":"missing","server":"https://galaxy.mesocentre.uca.fr"},{"state":"missing","server":"https://galaxy.pasteur.fr/"},{"state":"missing","server":"https://galaxytrakr.org/"},{"state":"missing","server":"http://hyperbrowser.uio.no/hb/"},{"state":"missing","server":"http://gigagalaxy.net/"},{"state":"missing","server":"https://galaxy-web.ipk-gatersleben.de"},{"state":"missing","server":"https://www.immportgalaxy.org/"},{"state":"missing","server":"http://galaxy.interactomix.com/"},{"state":"missing","server":"http://galaxy.ul.edu.lb/"},{"state":"inexact","versions":["0.7.3+galaxy1"],"server":"https://mississippi.sorbonne-universite.fr"},{"state":"missing","server":"https://neo.engr.uconn.edu/"},{"state":"missing","server":"http://mapping-by-sequencing.vm.uni-freiburg.de:8080/"},{"state":"missing","server":"http://galaxy.inf.ethz.ch"},{"state":"missing","server":"https://palfinder.ls.manchester.ac.uk/"},{"state":"missing","server":"http://pepsimili.e-nios.com:8080/"},{"state":"missing","server":"https://galaxy.bio.di.uminho.pt/"},{"state":"inexact","versions":["0.3.1","0.5.3","0.7.1+galaxy1","0.3"],"server":"https://usegalaxy.be/"},{"state":"inexact","versions":["0.6.1"],"server":"https://usegalaxy.cz/"},{"state":"inexact","versions":["0.7.3+galaxy1","0.3.1","0.5.3","0.7.1+galaxy1","0.3","0.6.1","0.3.2","0.6.0","0.4.1","0.6.3+galaxy0","0.3.3","0.4.3"],"server":"https://usegalaxy.eu"},{"state":"inexact","versions":["0.7.3+galaxy1","0.3.1","0.5.3","0.7.1+galaxy1","0.6.1","0.6.0","0.4.1","0.6.3+galaxy0","0.3.3","0.4.3","0.7.1+galaxy0"],"server":"https://usegalaxy.fr/"},{"state":"missing","server":"https://usegalaxy.no/"},{"state":"missing","server":"https://usegalaxy.org"},{"state":"inexact","versions":["0.7.3+galaxy1","0.5.3","0.7.1+galaxy1","0.6.1","0.6.0","0.6.3+galaxy0","0.3.3","0.4.3"],"server":"https://usegalaxy.org.au"},{"state":"missing","server":"https://viralvariant.anses.fr/"}],"version":"0.7.1"}]},"topic_name_human":"Using Galaxy and Managing your Data","admin_install":{"install_tool_dependencies":true,"install_repository_dependencies":true,"install_resolver_dependencies":true,"tools":[{"name":"ena_upload","owner":"iuc","revisions":"9e2df763086c","tool_panel_section_label":"Send Data","tool_shed_url":"https://toolshed.g2.bx.psu.edu/"}]},"admin_install_yaml":"---\ninstall_tool_dependencies: true\ninstall_repository_dependencies: true\ninstall_resolver_dependencies: true\ntools:\n- name: ena_upload\n  owner: iuc\n  revisions: 9e2df763086c\n  tool_panel_section_label: Send Data\n  tool_shed_url: https://toolshed.g2.bx.psu.edu/\n","tours":false,"video":false,"slides_recordings":false,"translations":{"tutorial":[],"slides":[],"video":false},"license":"CC-BY-4.0","type":"tutorial","contributors":[{"name":"Miguel Roncoroni","joined":"2021-08","email":"miguel.roncoroni@elixir-belgium.org","id":"roncoronimiguel","url":"https://training.galaxyproject.org/training-material/api/contributors/roncoronimiguel.json","page":"https://training.galaxyproject.org/training-material/hall-of-fame/roncoronimiguel/"},{"name":"Bert Droesbeke","email":"bert.droesbeke@vib.be","matrix":"bedroesb:matrix.org","orcid":"0000-0003-0522-5674","joined":"2019-12","elixir_node":"be","affiliations":["elixir-europe"],"id":"bedroesb","url":"https://training.galaxyproject.org/training-material/api/contributors/bedroesb.json","page":"https://training.galaxyproject.org/training-material/hall-of-fame/bedroesb/"},{"name":"Boris Depoortere","joined":"2024-04","email":"boris.depoortere99@gmail.com","linkedin":"borisdepoortere","matrix":"b0r1sd:matrix.org","elixir_node":"be","location":{"country":"BE","lat":51.054,"lon":3.723},"affiliations":["elixir-europe"],"id":"B0r1sD","url":"https://training.galaxyproject.org/training-material/api/contributors/B0r1sD.json","page":"https://training.galaxyproject.org/training-material/hall-of-fame/B0r1sD/"},{"name":"Bert Droesbeke","email":"bert.droesbeke@vib.be","matrix":"bedroesb:matrix.org","orcid":"0000-0003-0522-5674","joined":"2019-12","elixir_node":"be","affiliations":["elixir-europe"],"id":"bedroesb","url":"https://training.galaxyproject.org/training-material/api/contributors/bedroesb.json","page":"https://training.galaxyproject.org/training-material/hall-of-fame/bedroesb/"},{"name":"Helena Rasche","orcid":"0000-0001-9760-8992","maintainer_contact":"gitter","matrix":"hexylena:matrix.org","joined":"2017-09","elixir_node":"nl","affiliations":["erasmusmc","gallantries","by-covid","elixir-europe","elixir-converge"],"former_affiliations":["deNBI","avans-atgm","uni-freiburg"],"contact_for_training":false,"location":{"country":"NL","lat":51.91,"lon":4.46},"id":"hexylena","url":"https://training.galaxyproject.org/training-material/api/contributors/hexylena.json","page":"https://training.galaxyproject.org/training-material/hall-of-fame/hexylena/"},{"name":"Saskia Hiltemann","maintainer_contact":"gitter","email":"saskia.hiltemann@gmail.com","fediverse":"https://mstdn.science/@shiltemann","fediverse_flavor":"mastodon","bluesky":"shiltemann.bsky.social","linkedin":"shiltemann","matrix":"shiltemann:matrix.org","orcid":"0000-0003-3803-468X","joined":"2017-09","bio":"Researcher at Erasmus Medical Center","elixir_node":"nl","contact_for_training":true,"affiliations":["uni-freiburg","nfdi4plants","elixir-europe"],"former_affiliations":["CINECA-Project","gallantries","erasmusmc"],"location":{"country":"NL","lat":51.912,"lon":4.462},"id":"shiltemann","url":"https://training.galaxyproject.org/training-material/api/contributors/shiltemann.json","page":"https://training.galaxyproject.org/training-material/hall-of-fame/shiltemann/"},{"name":"Björn Grüning","email":"bjoern.gruening@gmail.com","twitter":"bjoerngruening","fediverse":"https://fosstodon.org/@bgruening","fediverse_flavor":"mastodon","matrix":"bgruening:matrix.org","orcid":"0000-0002-3079-6586","elixir_node":"de","linkedin":"bgruening","contact_for_training":true,"joined":"2017-09","location":{"country":"DE","lat":47.997791,"lon":7.842609},"affiliations":["eurosciencegateway","eosc-life","by-covid","deNBI","sfb992","elixir-converge","uni-freiburg","elixir-europe"],"id":"bgruening","url":"https://training.galaxyproject.org/training-material/api/contributors/bgruening.json","page":"https://training.galaxyproject.org/training-material/hall-of-fame/bgruening/"},{"name":"Beatriz Serrano-Solano","email":"beatrizserrano.galaxy@gmail.com","twitter":"BSerranoSolano","linkedin":"beatriz-serrano","matrix":"beatrizserrano:matrix.org","orcid":"0000-0002-5862-6132","joined":"2020-07","id":"beatrizserrano","url":"https://training.galaxyproject.org/training-material/api/contributors/beatrizserrano.json","page":"https://training.galaxyproject.org/training-material/hall-of-fame/beatrizserrano/"}]}