{"layout":"tutorial_hands_on","title":"From NDVI data with OpenEO to time series visualisation with Holoviews","questions":["What's the NDVI ?","How to evaluate the NDVI through out time ?"],"objectives":["Use OpenEo technologies and learn how to download data with them","Learn to use Holoviz environment to process csv data","Create timeseries and visualisation of the NDVI","Handle going form one interactive tool to another"],"time_estimation":"1H","key_points":["Manage NDVI data","Handle jupyterlab tools"],"tags":["earth-system","land degradation","NDVI","copernicus","holoviews"],"contributions":{"authorship":["Marie59"],"funding":["fairease","eurosciencegateway"],"reviewing":["hexylena","Marie59","bgruening"]},"subtopic":"ecologyanalysis","js_requirements":{"mathjax":null,"mermaid":false},"short_id":"T00400","symlink":null,"url":"/topics/ecology/tutorials/ndvi_openeo/tutorial.html","topic_name":"ecology","tutorial_name":"ndvi_openeo","dir":"topics/ecology/tutorials/ndvi_openeo","id":"ecology/ndvi_openeo","hands_on":true,"slides":false,"mod_date":"2024-06-29 04:27:25 +0000","pub_date":"2024-01-24 19:43:59 +0000","version":3,"workflows":[{"workflow":"NDVI-with-OpenEO.ga","tests":true,"url":"https://training.galaxyproject.org/training-material/topics/ecology/tutorials/ndvi_openeo/workflows/NDVI-with-OpenEO.ga","url_html":"https://training.galaxyproject.org/training-material/topics/ecology/tutorials/ndvi_openeo/workflows/NDVI-with-OpenEO.html","path":"topics/ecology/tutorials/ndvi_openeo/workflows/NDVI-with-OpenEO.ga","wfid":"ecology-ndvi_openeo","wfname":"ndvi-with-openeo","trs_endpoint":"https://training.galaxyproject.org/training-material/api/ga4gh/trs/v2/tools/ecology-ndvi_openeo/versions/ndvi-with-openeo","license":"CC-BY-4.0","parent_id":"ecology/ndvi_openeo","topic_id":"ecology","tutorial_id":"ndvi_openeo","creators":[{"class":"Person","identifier":"0009-0008-0622-604X","name":"Marie Jossé","url":"https://github.com/Marie59"}],"name":"NDVI with OpenEO","title":"NDVI with OpenEO","version":1,"description":"","tags":[],"features":{"report":null,"subworkflows":false,"comments":false,"parameters":false},"workflowhub_id":"1242","history":[{"hash":"76cb605583a35eb62c395933f9798887f5dd2164","unix":"1705331890","message":"fix license test","short_hash":"76cb60558","num":2},{"hash":"1b86f105a7a072e2405b937e816e682617fe779d","unix":"1705326039","message":"add test files","short_hash":"1b86f105a","num":1}],"test_results":null,"modified":"2024-12-04 14:48:31 +0000","mermaid":"flowchart TD\n  0[\"Copernicus Data Space Ecosystem\"];\n  1[\"Holoviz\"];\n  0 -->|output_collection| 1;","graph_dot":"digraph main {\n  node [fontname=\"Atkinson Hyperlegible\", shape=box, color=white,style=filled,color=peachpuff,margin=\"0.2,0.2\"];\n  edge [fontname=\"Atkinson Hyperlegible\"];\n  0[label=\"Copernicus Data Space Ecosystem\"]\n  1[label=\"Holoviz\"]\n  0 -> 1 [label=\"output_collection\"]\n}","workflow_tools":["interactive_tool_copernicus_notebook","interactive_tool_holoviz"],"inputs":[],"outputs":[]},{"workflow":"main_workflow.ga","tests":false,"url":"https://training.galaxyproject.org/training-material/topics/ecology/tutorials/ndvi_openeo/workflows/main_workflow.ga","url_html":"https://training.galaxyproject.org/training-material/topics/ecology/tutorials/ndvi_openeo/workflows/main_workflow.html","path":"topics/ecology/tutorials/ndvi_openeo/workflows/main_workflow.ga","wfid":"ecology-ndvi_openeo","wfname":"main-workflow","trs_endpoint":"https://training.galaxyproject.org/training-material/api/ga4gh/trs/v2/tools/ecology-ndvi_openeo/versions/main-workflow","license":"CC-BY-4.0","parent_id":"ecology/ndvi_openeo","topic_id":"ecology","tutorial_id":"ndvi_openeo","creators":[{"class":"Person","identifier":"0009-0008-0622-604X","name":"Marie Jossé","url":"https://github.com/Marie59"}],"name":"NDVI with OpenEO","title":"NDVI with OpenEO","version":1,"description":"","tags":[],"features":{"report":null,"subworkflows":false,"comments":false,"parameters":false},"workflowhub_id":"1239","history":[{"hash":"c9e46f370f0170707bf194000ba7d81dedb1eb56","unix":"1705331825","message":"fix license","short_hash":"c9e46f370","num":6},{"hash":"fb3bcc497acebb64dfa435efd224496615913356","unix":"1705324903","message":"add workflow","short_hash":"fb3bcc497","num":5},{"hash":"0f88c406dde20fdb8f822000a7a6f10802d6d644","unix":"1705324823","message":"Delete topics/ecology/tutorials/ndvi_openeo/workflows/main_workflow.ga","short_hash":"0f88c406d","num":4},{"hash":"9336c867093f14929f5eeb2f8ac7ca7e3484f4f0","unix":"1705317870","message":"add new workflow","short_hash":"9336c8670","num":3},{"hash":"c8b1d5f64271724fb617321c267940f72c1cb062","unix":"1705317845","message":"Delete topics/ecology/tutorials/ndvi_openeo/workflows/main_workflow.ga","short_hash":"c8b1d5f64","num":2},{"hash":"9346f227c4a55267bedf0c2a76fb0c2b3fec185b","unix":"1705076722","message":"add ndvi openeo tuto","short_hash":"9346f227c","num":1}],"test_results":null,"modified":"2024-12-04 14:48:31 +0000","mermaid":"flowchart TD\n  0[\"Copernicus Data Space Ecosystem\"];\n  1[\"Holoviz\"];\n  0 -->|output_collection| 1;","graph_dot":"digraph main {\n  node [fontname=\"Atkinson Hyperlegible\", shape=box, color=white,style=filled,color=peachpuff,margin=\"0.2,0.2\"];\n  edge [fontname=\"Atkinson Hyperlegible\"];\n  0[label=\"Copernicus Data Space Ecosystem\"]\n  1[label=\"Holoviz\"]\n  0 -> 1 [label=\"output_collection\"]\n}","workflow_tools":["interactive_tool_copernicus_notebook","interactive_tool_holoviz"],"inputs":[],"outputs":[]}],"api":"https://training.galaxyproject.org/training-material/api/topics/ecology/tutorials/ndvi_openeo/tutorial.json","tools":["interactive_tool_copernicus_notebook","interactive_tool_holoviz"],"supported_servers":{"exact":[{"url":"https://usegalaxy.eu","name":"UseGalaxy.eu","usegalaxy":true}],"inexact":[]},"supported_servers_matrix":{"servers":[{"url":"http://apostl.moffitt.org/","name":"APOSTL"},{"url":"http://smile.hku.hk/SARGs","name":"ARGs-OAP"},{"url":"https://iris.angers.inra.fr/galaxypub-cfbp","name":"CIRM-CFBP"},{"url":"https://vm-chemflow-francegrille.eu/","name":"ChemFlow"},{"url":"https://hyperbrowser.uio.no/coloc-stats","name":"Coloc-stats"},{"url":"https://coralsnp.science.psu.edu/galaxy/","name":"CoralSNP"},{"url":"http://cropgalaxy.excellenceinbreeding.org/","name":"CropGalaxy"},{"url":"http://dintor.eurac.edu/","name":"Dintor"},{"url":"http://www.freebioinfo.org/","name":"FreeBioinfo"},{"url":"http://igg.cloud.ba.infn.it/galaxy","name":"GASLINI"},{"url":"https://galaxy.mesocentre.uca.fr","name":"Galaxy@AuBi","usegalaxy":false},{"url":"https://galaxy.pasteur.fr/","name":"Galaxy@Pasteur","usegalaxy":false},{"url":"https://galaxytrakr.org/","name":"GalaxyTrakr","usegalaxy":false},{"url":"http://hyperbrowser.uio.no/hb/","name":"Genomic Hyperbrowser"},{"url":"http://gigagalaxy.net/","name":"GigaGalaxy"},{"url":"https://galaxy-web.ipk-gatersleben.de","name":"IPK Galaxy Blast Suite"},{"url":"https://www.immportgalaxy.org/","name":"ImmPort Galaxy"},{"url":"http://galaxy.interactomix.com/","name":"InteractoMIX"},{"url":"http://galaxy.ul.edu.lb/","name":"Lebanese University Galaxy"},{"url":"https://mississippi.sorbonne-universite.fr","name":"MISSISSIPPI","usegalaxy":false},{"url":"https://neo.engr.uconn.edu/","name":"Mandoiu Lab"},{"url":"http://mapping-by-sequencing.vm.uni-freiburg.de:8080/","name":"MiModD NacreousMap"},{"url":"http://galaxy.inf.ethz.ch","name":"Oqtans"},{"url":"https://palfinder.ls.manchester.ac.uk/","name":"Palfinder"},{"url":"http://pepsimili.e-nios.com:8080/","name":"PepSimili","usegalaxy":false},{"url":"https://galaxy.bio.di.uminho.pt/","name":"PhagePromotor","usegalaxy":false},{"url":"https://usegalaxy.be/","name":"UseGalaxy.be","usegalaxy":false},{"url":"https://usegalaxy.cz/","name":"UseGalaxy.cz","usegalaxy":false},{"url":"https://usegalaxy.eu","name":"UseGalaxy.eu","usegalaxy":true},{"url":"https://usegalaxy.fr/","name":"UseGalaxy.fr","usegalaxy":false},{"url":"https://usegalaxy.no/","name":"UseGalaxy.no","usegalaxy":false},{"url":"https://usegalaxy.org","name":"UseGalaxy.org (Main)","usegalaxy":true},{"url":"https://usegalaxy.org.au","name":"UseGalaxy.org.au","usegalaxy":true},{"url":"https://viralvariant.anses.fr/","name":"Viral Variant Visualizer (VVV)"}],"tools":[{"id":"interactive_tool_copernicus_notebook","servers":[{"state":"missing","server":"http://apostl.moffitt.org/"},{"state":"missing","server":"http://smile.hku.hk/SARGs"},{"state":"missing","server":"https://iris.angers.inra.fr/galaxypub-cfbp"},{"state":"missing","server":"https://vm-chemflow-francegrille.eu/"},{"state":"missing","server":"https://hyperbrowser.uio.no/coloc-stats"},{"state":"missing","server":"https://coralsnp.science.psu.edu/galaxy/"},{"state":"missing","server":"http://cropgalaxy.excellenceinbreeding.org/"},{"state":"missing","server":"http://dintor.eurac.edu/"},{"state":"missing","server":"http://www.freebioinfo.org/"},{"state":"missing","server":"http://igg.cloud.ba.infn.it/galaxy"},{"state":"missing","server":"https://galaxy.mesocentre.uca.fr"},{"state":"missing","server":"https://galaxy.pasteur.fr/"},{"state":"missing","server":"https://galaxytrakr.org/"},{"state":"missing","server":"http://hyperbrowser.uio.no/hb/"},{"state":"missing","server":"http://gigagalaxy.net/"},{"state":"missing","server":"https://galaxy-web.ipk-gatersleben.de"},{"state":"missing","server":"https://www.immportgalaxy.org/"},{"state":"missing","server":"http://galaxy.interactomix.com/"},{"state":"missing","server":"http://galaxy.ul.edu.lb/"},{"state":"missing","server":"https://mississippi.sorbonne-universite.fr"},{"state":"missing","server":"https://neo.engr.uconn.edu/"},{"state":"missing","server":"http://mapping-by-sequencing.vm.uni-freiburg.de:8080/"},{"state":"missing","server":"http://galaxy.inf.ethz.ch"},{"state":"missing","server":"https://palfinder.ls.manchester.ac.uk/"},{"state":"missing","server":"http://pepsimili.e-nios.com:8080/"},{"state":"missing","server":"https://galaxy.bio.di.uminho.pt/"},{"state":"missing","server":"https://usegalaxy.be/"},{"state":"missing","server":"https://usegalaxy.cz/"},{"state":"local","server":"https://usegalaxy.eu"},{"state":"missing","server":"https://usegalaxy.fr/"},{"state":"missing","server":"https://usegalaxy.no/"},{"state":"missing","server":"https://usegalaxy.org"},{"state":"missing","server":"https://usegalaxy.org.au"},{"state":"missing","server":"https://viralvariant.anses.fr/"}],"version":"local"},{"id":"interactive_tool_holoviz","servers":[{"state":"missing","server":"http://apostl.moffitt.org/"},{"state":"missing","server":"http://smile.hku.hk/SARGs"},{"state":"missing","server":"https://iris.angers.inra.fr/galaxypub-cfbp"},{"state":"missing","server":"https://vm-chemflow-francegrille.eu/"},{"state":"missing","server":"https://hyperbrowser.uio.no/coloc-stats"},{"state":"missing","server":"https://coralsnp.science.psu.edu/galaxy/"},{"state":"missing","server":"http://cropgalaxy.excellenceinbreeding.org/"},{"state":"missing","server":"http://dintor.eurac.edu/"},{"state":"missing","server":"http://www.freebioinfo.org/"},{"state":"missing","server":"http://igg.cloud.ba.infn.it/galaxy"},{"state":"missing","server":"https://galaxy.mesocentre.uca.fr"},{"state":"missing","server":"https://galaxy.pasteur.fr/"},{"state":"missing","server":"https://galaxytrakr.org/"},{"state":"missing","server":"http://hyperbrowser.uio.no/hb/"},{"state":"missing","server":"http://gigagalaxy.net/"},{"state":"missing","server":"https://galaxy-web.ipk-gatersleben.de"},{"state":"missing","server":"https://www.immportgalaxy.org/"},{"state":"missing","server":"http://galaxy.interactomix.com/"},{"state":"missing","server":"http://galaxy.ul.edu.lb/"},{"state":"missing","server":"https://mississippi.sorbonne-universite.fr"},{"state":"missing","server":"https://neo.engr.uconn.edu/"},{"state":"missing","server":"http://mapping-by-sequencing.vm.uni-freiburg.de:8080/"},{"state":"missing","server":"http://galaxy.inf.ethz.ch"},{"state":"missing","server":"https://palfinder.ls.manchester.ac.uk/"},{"state":"missing","server":"http://pepsimili.e-nios.com:8080/"},{"state":"missing","server":"https://galaxy.bio.di.uminho.pt/"},{"state":"missing","server":"https://usegalaxy.be/"},{"state":"missing","server":"https://usegalaxy.cz/"},{"state":"local","server":"https://usegalaxy.eu"},{"state":"missing","server":"https://usegalaxy.fr/"},{"state":"missing","server":"https://usegalaxy.no/"},{"state":"missing","server":"https://usegalaxy.org"},{"state":"missing","server":"https://usegalaxy.org.au"},{"state":"missing","server":"https://viralvariant.anses.fr/"}],"version":"local"}]},"topic_name_human":"Ecology","admin_install":{"install_tool_dependencies":true,"install_repository_dependencies":true,"install_resolver_dependencies":true,"tools":[]},"admin_install_yaml":"---\ninstall_tool_dependencies: true\ninstall_repository_dependencies: true\ninstall_resolver_dependencies: true\ntools: []\n","tours":false,"video":false,"slides_recordings":false,"translations":{"tutorial":[],"slides":[],"video":false},"license":"CC-BY-4.0","type":"tutorial","contributors":[{"name":"Marie Josse","joined":"2022-03","email":"marie.josse@ifremer.fr","affiliations":["pndb","fairease"],"id":"Marie59","url":"https://training.galaxyproject.org/training-material/api/contributors/Marie59.json","page":"https://training.galaxyproject.org/training-material/hall-of-fame/Marie59/"},{"name":"Fair-Ease","github":false,"joined":"2023-10","avatar":"/training-material/assets/images/fair_ease_colour.png","url":"https://training.galaxyproject.org/training-material/api/grants/fairease.json","funding_id":"101058785","funding_database":"cordis","funding_statement":"FAIR-EASE is a RIA project funded under HORIZON-INFRA-2021-EOSC-01-04, and it involves a consortium of 25 partners from all over Europe.","members":["Marie59","yvanlebras"],"id":"fairease","page":"https://training.galaxyproject.org/training-material/hall-of-fame/fairease/"},{"name":"EuroScienceGateway","github":false,"joined":"2023-10","avatar":"/training-material/assets/images/eurosciencegateway.png","url":"https://training.galaxyproject.org/training-material/api/grants/eurosciencegateway.json","funding_id":"101057388","funding_database":"cordis","funding_statement":"EuroScienceGateway was funded by the European Union programme Horizon Europe (HORIZON-INFRA-2021-EOSC-01-04) under grant agreement number 101057388 and by UK Research and Innovation (UKRI) under the UK government’s Horizon Europe funding guarantee grant number 10038963.","members":["abretaud","anuprulez","bgruening","erxleben","pauldg","rlibouba"],"id":"eurosciencegateway","page":"https://training.galaxyproject.org/training-material/hall-of-fame/eurosciencegateway/"},{"name":"Helena Rasche","orcid":"0000-0001-9760-8992","maintainer_contact":"gitter","matrix":"hexylena:matrix.org","joined":"2017-09","elixir_node":"nl","affiliations":["erasmusmc","gallantries","by-covid","elixir-europe","elixir-converge"],"former_affiliations":["deNBI","avans-atgm","uni-freiburg"],"contact_for_training":false,"location":{"country":"NL","lat":51.91,"lon":4.46},"id":"hexylena","url":"https://training.galaxyproject.org/training-material/api/contributors/hexylena.json","page":"https://training.galaxyproject.org/training-material/hall-of-fame/hexylena/"},{"name":"Marie Josse","joined":"2022-03","email":"marie.josse@ifremer.fr","affiliations":["pndb","fairease"],"id":"Marie59","url":"https://training.galaxyproject.org/training-material/api/contributors/Marie59.json","page":"https://training.galaxyproject.org/training-material/hall-of-fame/Marie59/"},{"name":"Björn Grüning","email":"bjoern.gruening@gmail.com","twitter":"bjoerngruening","fediverse":"https://fosstodon.org/@bgruening","fediverse_flavor":"mastodon","matrix":"bgruening:matrix.org","orcid":"0000-0002-3079-6586","elixir_node":"de","linkedin":"bgruening","contact_for_training":true,"joined":"2017-09","location":{"country":"DE","lat":47.997791,"lon":7.842609},"affiliations":["eurosciencegateway","eosc-life","by-covid","deNBI","sfb992","elixir-converge","uni-freiburg","elixir-europe"],"id":"bgruening","url":"https://training.galaxyproject.org/training-material/api/contributors/bgruening.json","page":"https://training.galaxyproject.org/training-material/hall-of-fame/bgruening/"}]}