{"layout":"tutorial_hands_on","title":"SARS-CoV-2 Viral Sample Alignment and Variant Visualization","level":"Introductory","zenodo_link":"https://doi.org/10.5281/zenodo.8115178","questions":["How do I check my data quality?","How do I put together my dataset of fragmented sequences into a full sequence?","How do I visually explore the variants in my SARS-CoV-2 sample?"],"objectives":["Gather and evaluate experimental evidence, including qualitative and quantitative data","Generate and interpret graphs displaying experimental results","Critique large data sets and use bioinformatics to assess genetics data","Tap into the interdisciplinary nature of science"],"time_estimation":"1H","key_points":["Use Galaxy on the AnVIL cloud computing resource to check data, perform an alignment, and visualize the results."],"tags":["covid19","gmod","jbrowse1"],"contributions":{"authorship":["nakucher","avahoffman","robertmeller"],"editing":["katherinecox","cutsort","nakucher"],"infrastructure":["cansavvy","avahoffman","katherinecox","ehumph","cutsort"],"funding":["nhgri-gdscn","nhgri-anvil"],"reviewing":["hexylena","nakucher","bebatut","abretaud"]},"js_requirements":{"mathjax":null,"mermaid":false},"short_id":"T00356","symlink":null,"url":"/topics/sequence-analysis/tutorials/sars-with-galaxy-on-anvil/tutorial.html","topic_name":"sequence-analysis","tutorial_name":"sars-with-galaxy-on-anvil","dir":"topics/sequence-analysis/tutorials/sars-with-galaxy-on-anvil","id":"sequence-analysis/sars-with-galaxy-on-anvil","hands_on":true,"slides":false,"mod_date":"2024-02-29 13:37:23 +0000","pub_date":"2023-07-10 11:58:19 +0000","version":2,"api":"https://training.galaxyproject.org/training-material/api/topics/sequence-analysis/tutorials/sars-with-galaxy-on-anvil/tutorial.json","tools":["toolshed.g2.bx.psu.edu/repos/devteam/bwa/bwa_mem/0.7.17.2","toolshed.g2.bx.psu.edu/repos/devteam/fastqc/fastqc/0.73+galaxy0","toolshed.g2.bx.psu.edu/repos/iuc/jbrowse/jbrowse/1.16.9+galaxy0"],"supported_servers":{"exact":[{"url":"https://usegalaxy.eu","name":"UseGalaxy.eu","usegalaxy":true},{"url":"https://usegalaxy.fr/","name":"UseGalaxy.fr","usegalaxy":false},{"url":"https://usegalaxy.no/","name":"UseGalaxy.no","usegalaxy":false},{"url":"https://usegalaxy.org","name":"UseGalaxy.org (Main)","usegalaxy":true},{"url":"https://usegalaxy.org.au","name":"UseGalaxy.org.au","usegalaxy":true}],"inexact":[{"url":"https://galaxy.mesocentre.uca.fr","name":"Galaxy@AuBi","usegalaxy":false},{"url":"https://galaxy.pasteur.fr/","name":"Galaxy@Pasteur","usegalaxy":false},{"url":"https://galaxytrakr.org/","name":"GalaxyTrakr","usegalaxy":false},{"url":"https://mississippi.sorbonne-universite.fr","name":"MISSISSIPPI","usegalaxy":false},{"url":"https://usegalaxy.be/","name":"UseGalaxy.be","usegalaxy":false},{"url":"https://usegalaxy.cz/","name":"UseGalaxy.cz","usegalaxy":false}]},"supported_servers_matrix":{"servers":[{"url":"http://apostl.moffitt.org/","name":"APOSTL"},{"url":"http://smile.hku.hk/SARGs","name":"ARGs-OAP"},{"url":"https://iris.angers.inra.fr/galaxypub-cfbp","name":"CIRM-CFBP"},{"url":"https://vm-chemflow-francegrille.eu/","name":"ChemFlow"},{"url":"https://hyperbrowser.uio.no/coloc-stats","name":"Coloc-stats"},{"url":"https://coralsnp.science.psu.edu/galaxy/","name":"CoralSNP"},{"url":"http://cropgalaxy.excellenceinbreeding.org/","name":"CropGalaxy"},{"url":"http://dintor.eurac.edu/","name":"Dintor"},{"url":"http://www.freebioinfo.org/","name":"FreeBioinfo"},{"url":"http://igg.cloud.ba.infn.it/galaxy","name":"GASLINI"},{"url":"https://galaxy.mesocentre.uca.fr","name":"Galaxy@AuBi","usegalaxy":false},{"url":"https://galaxy.pasteur.fr/","name":"Galaxy@Pasteur","usegalaxy":false},{"url":"https://galaxytrakr.org/","name":"GalaxyTrakr","usegalaxy":false},{"url":"http://hyperbrowser.uio.no/hb/","name":"Genomic Hyperbrowser"},{"url":"http://gigagalaxy.net/","name":"GigaGalaxy"},{"url":"https://galaxy-web.ipk-gatersleben.de","name":"IPK Galaxy Blast Suite"},{"url":"https://www.immportgalaxy.org/","name":"ImmPort Galaxy"},{"url":"http://galaxy.interactomix.com/","name":"InteractoMIX"},{"url":"https://mississippi.sorbonne-universite.fr","name":"MISSISSIPPI","usegalaxy":false},{"url":"https://neo.engr.uconn.edu/","name":"Mandoiu Lab"},{"url":"http://mapping-by-sequencing.vm.uni-freiburg.de:8080/","name":"MiModD NacreousMap"},{"url":"http://galaxy.inf.ethz.ch","name":"Oqtans"},{"url":"https://palfinder.ls.manchester.ac.uk/","name":"Palfinder"},{"url":"http://pepsimili.e-nios.com:8080/","name":"PepSimili","usegalaxy":false},{"url":"https://usegalaxy.be/","name":"UseGalaxy.be","usegalaxy":false},{"url":"https://usegalaxy.cz/","name":"UseGalaxy.cz","usegalaxy":false},{"url":"https://usegalaxy.eu","name":"UseGalaxy.eu","usegalaxy":true},{"url":"https://usegalaxy.fr/","name":"UseGalaxy.fr","usegalaxy":false},{"url":"https://usegalaxy.no/","name":"UseGalaxy.no","usegalaxy":false},{"url":"https://usegalaxy.org","name":"UseGalaxy.org (Main)","usegalaxy":true},{"url":"https://usegalaxy.org.au","name":"UseGalaxy.org.au","usegalaxy":true},{"url":"https://viralvariant.anses.fr/","name":"Viral Variant Visualizer (VVV)"}],"tools":[{"id":"toolshed.g2.bx.psu.edu/repos/devteam/bwa/bwa_mem/0.7.17.2","servers":[{"state":"missing","server":"http://apostl.moffitt.org/"},{"state":"missing","server":"http://smile.hku.hk/SARGs"},{"state":"missing","server":"https://iris.angers.inra.fr/galaxypub-cfbp"},{"state":"missing","server":"https://vm-chemflow-francegrille.eu/"},{"state":"missing","server":"https://hyperbrowser.uio.no/coloc-stats"},{"state":"missing","server":"https://coralsnp.science.psu.edu/galaxy/"},{"state":"missing","server":"http://cropgalaxy.excellenceinbreeding.org/"},{"state":"missing","server":"http://dintor.eurac.edu/"},{"state":"missing","server":"http://www.freebioinfo.org/"},{"state":"missing","server":"http://igg.cloud.ba.infn.it/galaxy"},{"state":"inexact","versions":["0.7.17.1"],"server":"https://galaxy.mesocentre.uca.fr"},{"state":"inexact","versions":["0.7.18"],"server":"https://galaxy.pasteur.fr/"},{"state":"exact","version":"0.7.17.2","server":"https://galaxytrakr.org/"},{"state":"missing","server":"http://hyperbrowser.uio.no/hb/"},{"state":"missing","server":"http://gigagalaxy.net/"},{"state":"missing","server":"https://galaxy-web.ipk-gatersleben.de"},{"state":"missing","server":"https://www.immportgalaxy.org/"},{"state":"missing","server":"http://galaxy.interactomix.com/"},{"state":"exact","version":"0.7.17.2","server":"https://mississippi.sorbonne-universite.fr"},{"state":"missing","server":"https://neo.engr.uconn.edu/"},{"state":"missing","server":"http://mapping-by-sequencing.vm.uni-freiburg.de:8080/"},{"state":"missing","server":"http://galaxy.inf.ethz.ch"},{"state":"missing","server":"https://palfinder.ls.manchester.ac.uk/"},{"state":"missing","server":"http://pepsimili.e-nios.com:8080/"},{"state":"inexact","versions":["0.7.17.1","0.1"],"server":"https://usegalaxy.be/"},{"state":"exact","version":"0.7.17.2","server":"https://usegalaxy.cz/"},{"state":"exact","version":"0.7.17.2","server":"https://usegalaxy.eu"},{"state":"exact","version":"0.7.17.2","server":"https://usegalaxy.fr/"},{"state":"exact","version":"0.7.17.2","server":"https://usegalaxy.no/"},{"state":"exact","version":"0.7.17.2","server":"https://usegalaxy.org"},{"state":"exact","version":"0.7.17.2","server":"https://usegalaxy.org.au"},{"state":"exact","version":"0.7.17.2","server":"https://viralvariant.anses.fr/"}],"version":"0.7.17.2"},{"id":"toolshed.g2.bx.psu.edu/repos/devteam/fastqc/fastqc/0.73+galaxy0","servers":[{"state":"missing","server":"http://apostl.moffitt.org/"},{"state":"missing","server":"http://smile.hku.hk/SARGs"},{"state":"missing","server":"https://iris.angers.inra.fr/galaxypub-cfbp"},{"state":"missing","server":"https://vm-chemflow-francegrille.eu/"},{"state":"missing","server":"https://hyperbrowser.uio.no/coloc-stats"},{"state":"missing","server":"https://coralsnp.science.psu.edu/galaxy/"},{"state":"missing","server":"http://cropgalaxy.excellenceinbreeding.org/"},{"state":"missing","server":"http://dintor.eurac.edu/"},{"state":"missing","server":"http://www.freebioinfo.org/"},{"state":"missing","server":"http://igg.cloud.ba.infn.it/galaxy"},{"state":"exact","version":"0.73+galaxy0","server":"https://galaxy.mesocentre.uca.fr"},{"state":"inexact","versions":["0.74+galaxy0"],"server":"https://galaxy.pasteur.fr/"},{"state":"exact","version":"0.73+galaxy0","server":"https://galaxytrakr.org/"},{"state":"missing","server":"http://hyperbrowser.uio.no/hb/"},{"state":"missing","server":"http://gigagalaxy.net/"},{"state":"missing","server":"https://galaxy-web.ipk-gatersleben.de"},{"state":"missing","server":"https://www.immportgalaxy.org/"},{"state":"missing","server":"http://galaxy.interactomix.com/"},{"state":"inexact","versions":["0.74+galaxy0"],"server":"https://mississippi.sorbonne-universite.fr"},{"state":"missing","server":"https://neo.engr.uconn.edu/"},{"state":"missing","server":"http://mapping-by-sequencing.vm.uni-freiburg.de:8080/"},{"state":"missing","server":"http://galaxy.inf.ethz.ch"},{"state":"inexact","versions":["0.72","0.72+galaxy1","0.65","0.71"],"server":"https://palfinder.ls.manchester.ac.uk/"},{"state":"inexact","versions":["0.74+galaxy0"],"server":"http://pepsimili.e-nios.com:8080/"},{"state":"inexact","versions":["0.72","0.72+galaxy1","0.69","0.65","0.71","0.67","0.68","0.74+galaxy1","0.52"],"server":"https://usegalaxy.be/"},{"state":"inexact","versions":["0.74+galaxy0","0.69","0.65","0.67","0.68","0.52","0.64","0.62","0.63"],"server":"https://usegalaxy.cz/"},{"state":"exact","version":"0.73+galaxy0","server":"https://usegalaxy.eu"},{"state":"exact","version":"0.73+galaxy0","server":"https://usegalaxy.fr/"},{"state":"exact","version":"0.73+galaxy0","server":"https://usegalaxy.no/"},{"state":"exact","version":"0.73+galaxy0","server":"https://usegalaxy.org"},{"state":"exact","version":"0.73+galaxy0","server":"https://usegalaxy.org.au"},{"state":"missing","server":"https://viralvariant.anses.fr/"}],"version":"0.73+galaxy0"},{"id":"toolshed.g2.bx.psu.edu/repos/iuc/jbrowse/jbrowse/1.16.9+galaxy0","servers":[{"state":"missing","server":"http://apostl.moffitt.org/"},{"state":"missing","server":"http://smile.hku.hk/SARGs"},{"state":"missing","server":"https://iris.angers.inra.fr/galaxypub-cfbp"},{"state":"missing","server":"https://vm-chemflow-francegrille.eu/"},{"state":"missing","server":"https://hyperbrowser.uio.no/coloc-stats"},{"state":"missing","server":"https://coralsnp.science.psu.edu/galaxy/"},{"state":"missing","server":"http://cropgalaxy.excellenceinbreeding.org/"},{"state":"missing","server":"http://dintor.eurac.edu/"},{"state":"missing","server":"http://www.freebioinfo.org/"},{"state":"missing","server":"http://igg.cloud.ba.infn.it/galaxy"},{"state":"exact","version":"1.16.9+galaxy0","server":"https://galaxy.mesocentre.uca.fr"},{"state":"inexact","versions":["1.16.11+galaxy1"],"server":"https://galaxy.pasteur.fr/"},{"state":"inexact","versions":["1.16.11+galaxy1","1.16.10+galaxy0"],"server":"https://galaxytrakr.org/"},{"state":"missing","server":"http://hyperbrowser.uio.no/hb/"},{"state":"missing","server":"http://gigagalaxy.net/"},{"state":"missing","server":"https://galaxy-web.ipk-gatersleben.de"},{"state":"missing","server":"https://www.immportgalaxy.org/"},{"state":"missing","server":"http://galaxy.interactomix.com/"},{"state":"inexact","versions":["1.16.11+galaxy1"],"server":"https://mississippi.sorbonne-universite.fr"},{"state":"missing","server":"https://neo.engr.uconn.edu/"},{"state":"missing","server":"http://mapping-by-sequencing.vm.uni-freiburg.de:8080/"},{"state":"missing","server":"http://galaxy.inf.ethz.ch"},{"state":"missing","server":"https://palfinder.ls.manchester.ac.uk/"},{"state":"missing","server":"http://pepsimili.e-nios.com:8080/"},{"state":"exact","version":"1.16.9+galaxy0","server":"https://usegalaxy.be/"},{"state":"inexact","versions":["1.16.11+galaxy1"],"server":"https://usegalaxy.cz/"},{"state":"exact","version":"1.16.9+galaxy0","server":"https://usegalaxy.eu"},{"state":"exact","version":"1.16.9+galaxy0","server":"https://usegalaxy.fr/"},{"state":"exact","version":"1.16.9+galaxy0","server":"https://usegalaxy.no/"},{"state":"exact","version":"1.16.9+galaxy0","server":"https://usegalaxy.org"},{"state":"exact","version":"1.16.9+galaxy0","server":"https://usegalaxy.org.au"},{"state":"missing","server":"https://viralvariant.anses.fr/"}],"version":"1.16.9+galaxy0"}]},"topic_name_human":"Sequence analysis","admin_install":{"install_tool_dependencies":true,"install_repository_dependencies":true,"install_resolver_dependencies":true,"tools":[{"name":"bwa","owner":"devteam","revisions":"e188dc7a68e6","tool_panel_section_label":"Mapping","tool_shed_url":"https://toolshed.g2.bx.psu.edu/"},{"name":"fastqc","owner":"devteam","revisions":"3d0c7bdf12f5","tool_panel_section_label":"FASTA/FASTQ","tool_shed_url":"https://toolshed.g2.bx.psu.edu/"},{"name":"jbrowse","owner":"iuc","revisions":"17359b808b01","tool_panel_section_label":"Graph/Display Data","tool_shed_url":"https://toolshed.g2.bx.psu.edu/"}]},"admin_install_yaml":"---\ninstall_tool_dependencies: true\ninstall_repository_dependencies: true\ninstall_resolver_dependencies: true\ntools:\n- name: bwa\n  owner: devteam\n  revisions: e188dc7a68e6\n  tool_panel_section_label: Mapping\n  tool_shed_url: https://toolshed.g2.bx.psu.edu/\n- name: fastqc\n  owner: devteam\n  revisions: 3d0c7bdf12f5\n  tool_panel_section_label: FASTA/FASTQ\n  tool_shed_url: https://toolshed.g2.bx.psu.edu/\n- name: jbrowse\n  owner: iuc\n  revisions: 17359b808b01\n  tool_panel_section_label: Graph/Display Data\n  tool_shed_url: https://toolshed.g2.bx.psu.edu/\n","tours":false,"video":false,"slides_recordings":false,"translations":{"tutorial":[],"slides":[],"video":false},"license":"CC-BY-4.0","type":"tutorial","contributors":[{"name":"Natalie Kucher","email":"nkucher3@jhu.edu","joined":"2023-06","id":"nakucher","url":"https://training.galaxyproject.org/training-material/api/contributors/nakucher.json","page":"https://training.galaxyproject.org/training-material/hall-of-fame/nakucher/"},{"name":"Ava Hoffman","joined":"2023-06","id":"avahoffman","url":"https://training.galaxyproject.org/training-material/api/contributors/avahoffman.json","page":"https://training.galaxyproject.org/training-material/hall-of-fame/avahoffman/"},{"name":"Robert Meller","joined":"2023-06","id":"robertmeller","url":"https://training.galaxyproject.org/training-material/api/contributors/robertmeller.json","page":"https://training.galaxyproject.org/training-material/hall-of-fame/robertmeller/"},{"name":"Katherine Cox","joined":"2023-06","id":"katherinecox","url":"https://training.galaxyproject.org/training-material/api/contributors/katherinecox.json","page":"https://training.galaxyproject.org/training-material/hall-of-fame/katherinecox/"},{"name":"Frederick Tan","joined":"2023-06","id":"cutsort","url":"https://training.galaxyproject.org/training-material/api/contributors/cutsort.json","page":"https://training.galaxyproject.org/training-material/hall-of-fame/cutsort/"},{"name":"Natalie Kucher","email":"nkucher3@jhu.edu","joined":"2023-06","id":"nakucher","url":"https://training.galaxyproject.org/training-material/api/contributors/nakucher.json","page":"https://training.galaxyproject.org/training-material/hall-of-fame/nakucher/"},{"name":"Candace Savonen","joined":"2023-06","id":"cansavvy","url":"https://training.galaxyproject.org/training-material/api/contributors/cansavvy.json","page":"https://training.galaxyproject.org/training-material/hall-of-fame/cansavvy/"},{"name":"Ava Hoffman","joined":"2023-06","id":"avahoffman","url":"https://training.galaxyproject.org/training-material/api/contributors/avahoffman.json","page":"https://training.galaxyproject.org/training-material/hall-of-fame/avahoffman/"},{"name":"Katherine Cox","joined":"2023-06","id":"katherinecox","url":"https://training.galaxyproject.org/training-material/api/contributors/katherinecox.json","page":"https://training.galaxyproject.org/training-material/hall-of-fame/katherinecox/"},{"name":"Elizabeth Humphries","joined":"2023-06","id":"ehumph","url":"https://training.galaxyproject.org/training-material/api/contributors/ehumph.json","page":"https://training.galaxyproject.org/training-material/hall-of-fame/ehumph/"},{"name":"Frederick Tan","joined":"2023-06","id":"cutsort","url":"https://training.galaxyproject.org/training-material/api/contributors/cutsort.json","page":"https://training.galaxyproject.org/training-material/hall-of-fame/cutsort/"},{"name":"National Human Genome Research Institute Genomic Data Science Community Network","short_name":"NHGRI GDS Community Network","github":false,"joined":"2023-06","avatar":"https://www.ashg.org/wp-content/uploads/2021/07/nhgri-logo-800x167-1.png","url":"https://training.galaxyproject.org/training-material/api/grants/nhgri-gdscn.json","funding_id":"75N92022P00232","funding_database":"highergov","id":"nhgri-gdscn","page":"https://training.galaxyproject.org/training-material/hall-of-fame/nhgri-gdscn/"},{"name":"National Human Genome Research Institute Genomic Data Science Analysis, Visualization, and Informatics Lab-Space","short_name":"NHGRI ANVIL","github":false,"joined":"2023-06","avatar":"https://www.ashg.org/wp-content/uploads/2021/07/nhgri-logo-800x167-1.png","url":"https://training.galaxyproject.org/training-material/api/grants/nhgri-anvil.json","funding_id":"U24HG010263","id":"nhgri-anvil","page":"https://training.galaxyproject.org/training-material/hall-of-fame/nhgri-anvil/"},{"name":"Helena Rasche","orcid":"0000-0001-9760-8992","maintainer_contact":"gitter","matrix":"hexylena:matrix.org","joined":"2017-09","elixir_node":"nl","affiliations":["erasmusmc","gallantries","by-covid","elixir-europe","elixir-converge"],"former_affiliations":["deNBI","avans-atgm","uni-freiburg"],"contact_for_training":false,"location":{"country":"NL","lat":51.91,"lon":4.46},"id":"hexylena","url":"https://training.galaxyproject.org/training-material/api/contributors/hexylena.json","page":"https://training.galaxyproject.org/training-material/hall-of-fame/hexylena/"},{"name":"Natalie Kucher","email":"nkucher3@jhu.edu","joined":"2023-06","id":"nakucher","url":"https://training.galaxyproject.org/training-material/api/contributors/nakucher.json","page":"https://training.galaxyproject.org/training-material/hall-of-fame/nakucher/"},{"name":"Bérénice Batut","email":"berenice.batut@gmail.com","twitter":"bebatut","linkedin":"berenicebatut","matrix":"bebatut:matrix.org","orcid":"0000-0001-9852-1987","joined":"2017-09","elixir_node":"fr","contact_for_training":true,"location":{"country":"FR","lat":45.77,"lon":3.08},"fediverse":"https://piaille.fr/@bebatut","fediverse_flavor":"mastodon","affiliations":["gallantries","ifb","elixir-europe"],"id":"bebatut","url":"https://training.galaxyproject.org/training-material/api/contributors/bebatut.json","page":"https://training.galaxyproject.org/training-material/hall-of-fame/bebatut/"},{"name":"Anthony Bretaudeau","email":"anthony.bretaudeau@inrae.fr","twitter":"abretau","matrix":"abretaud:matrix.org","orcid":"0000-0003-0914-2470","joined":"2017-09","elixir_node":"fr","contact_for_training":true,"location":{"country":"FR","lat":48.11,"lon":-1.64},"fediverse":"https://genomic.social/@abretaud","fediverse_flavor":"mastodon","affiliations":["gallantries","eurosciencegateway","elixir-europe"],"id":"abretaud","url":"https://training.galaxyproject.org/training-material/api/contributors/abretaud.json","page":"https://training.galaxyproject.org/training-material/hall-of-fame/abretaud/"}]}