{"layout":"tutorial_hands_on","title":"Understanding Barcodes","subtopic":"scintroduction","priority":2,"redirect_from":["/topics/transcriptomics/tutorials/scrna-umis/tutorial","/short/single-cell/scrna-umis","/short/T00256"],"zenodo_link":"https://zenodo.org/record/2573177","tags":null,"questions":["What are barcodes?","What is their purpose?","How are barcodes formatted?"],"objectives":["Demultiplex FASTQ data via UMI-tools","Understand and validate the extraction of barcodes"],"time_estimation":"2h","key_points":["Verifying the distribution of barcodes via a FASTQC plot","Relocating barcodes into headers","Removing unwanted barcodes"],"gitter":"Galaxy-Training-Network/galaxy-single-cell","recordings":[{"captioners":["khanteymoori"],"date":"2021-03-18","galaxy_version":"21.01","length":"10M","youtube_id":"AJ17BicjmYU","speakers":["nomadscientist"]}],"js_requirements":{"mathjax":null,"mermaid":false},"short_id":"T00256","symlink":null,"contributions":{"authorship":["mtekman"],"reviewing":["mtekman","lldelisle","hexylena","shiltemann","nsoranzo","bebatut","bgruening","nomadscientist"]},"url":"/topics/single-cell/tutorials/scrna-umis/tutorial.html","topic_name":"single-cell","tutorial_name":"scrna-umis","dir":"topics/single-cell/tutorials/scrna-umis","id":"single-cell/scrna-umis","hands_on":true,"slides":false,"mod_date":"2024-06-14 09:56:50 +0000","pub_date":"2019-02-20 18:33:11 +0000","version":7,"api":"https://training.galaxyproject.org/training-material/api/topics/single-cell/tutorials/scrna-umis/tutorial.json","tools":["toolshed.g2.bx.psu.edu/repos/devteam/fastqc/fastqc/0.72+galaxy1","toolshed.g2.bx.psu.edu/repos/iuc/umi_tools_extract/umi_tools_extract/0.5.5.1","toolshed.g2.bx.psu.edu/repos/peterjc/seq_filter_by_id/seq_filter_by_id/0.2.7"],"supported_servers":{"exact":[{"url":"https://usegalaxy.eu","name":"UseGalaxy.eu","usegalaxy":true},{"url":"https://usegalaxy.no/","name":"UseGalaxy.no","usegalaxy":false},{"url":"https://usegalaxy.org","name":"UseGalaxy.org (Main)","usegalaxy":true},{"url":"https://usegalaxy.org.au","name":"UseGalaxy.org.au","usegalaxy":true}],"inexact":[{"url":"https://usegalaxy.cz/","name":"UseGalaxy.cz","usegalaxy":false},{"url":"https://usegalaxy.fr/","name":"UseGalaxy.fr","usegalaxy":false}]},"supported_servers_matrix":{"servers":[{"url":"http://apostl.moffitt.org/","name":"APOSTL"},{"url":"http://smile.hku.hk/SARGs","name":"ARGs-OAP"},{"url":"https://iris.angers.inra.fr/galaxypub-cfbp","name":"CIRM-CFBP"},{"url":"https://vm-chemflow-francegrille.eu/","name":"ChemFlow"},{"url":"https://hyperbrowser.uio.no/coloc-stats","name":"Coloc-stats"},{"url":"https://coralsnp.science.psu.edu/galaxy/","name":"CoralSNP"},{"url":"http://cropgalaxy.excellenceinbreeding.org/","name":"CropGalaxy"},{"url":"http://dintor.eurac.edu/","name":"Dintor"},{"url":"http://www.freebioinfo.org/","name":"FreeBioinfo"},{"url":"http://igg.cloud.ba.infn.it/galaxy","name":"GASLINI"},{"url":"https://galaxy.mesocentre.uca.fr","name":"Galaxy@AuBi","usegalaxy":false},{"url":"https://galaxy.pasteur.fr/","name":"Galaxy@Pasteur","usegalaxy":false},{"url":"https://galaxytrakr.org/","name":"GalaxyTrakr","usegalaxy":false},{"url":"http://hyperbrowser.uio.no/hb/","name":"Genomic Hyperbrowser"},{"url":"http://gigagalaxy.net/","name":"GigaGalaxy"},{"url":"https://galaxy-web.ipk-gatersleben.de","name":"IPK Galaxy Blast Suite"},{"url":"https://www.immportgalaxy.org/","name":"ImmPort Galaxy"},{"url":"http://galaxy.interactomix.com/","name":"InteractoMIX"},{"url":"http://galaxy.ul.edu.lb/","name":"Lebanese University Galaxy"},{"url":"https://mississippi.sorbonne-universite.fr","name":"MISSISSIPPI","usegalaxy":false},{"url":"https://neo.engr.uconn.edu/","name":"Mandoiu Lab"},{"url":"http://mapping-by-sequencing.vm.uni-freiburg.de:8080/","name":"MiModD NacreousMap"},{"url":"http://galaxy.inf.ethz.ch","name":"Oqtans"},{"url":"https://palfinder.ls.manchester.ac.uk/","name":"Palfinder"},{"url":"http://pepsimili.e-nios.com:8080/","name":"PepSimili","usegalaxy":false},{"url":"https://galaxy.bio.di.uminho.pt/","name":"PhagePromotor","usegalaxy":false},{"url":"https://usegalaxy.be/","name":"UseGalaxy.be","usegalaxy":false},{"url":"https://usegalaxy.cz/","name":"UseGalaxy.cz","usegalaxy":false},{"url":"https://usegalaxy.eu","name":"UseGalaxy.eu","usegalaxy":true},{"url":"https://usegalaxy.fr/","name":"UseGalaxy.fr","usegalaxy":false},{"url":"https://usegalaxy.no/","name":"UseGalaxy.no","usegalaxy":false},{"url":"https://usegalaxy.org","name":"UseGalaxy.org (Main)","usegalaxy":true},{"url":"https://usegalaxy.org.au","name":"UseGalaxy.org.au","usegalaxy":true},{"url":"https://viralvariant.anses.fr/","name":"Viral Variant Visualizer (VVV)"}],"tools":[{"id":"toolshed.g2.bx.psu.edu/repos/devteam/fastqc/fastqc/0.72+galaxy1","servers":[{"state":"missing","server":"http://apostl.moffitt.org/"},{"state":"missing","server":"http://smile.hku.hk/SARGs"},{"state":"missing","server":"https://iris.angers.inra.fr/galaxypub-cfbp"},{"state":"missing","server":"https://vm-chemflow-francegrille.eu/"},{"state":"missing","server":"https://hyperbrowser.uio.no/coloc-stats"},{"state":"missing","server":"https://coralsnp.science.psu.edu/galaxy/"},{"state":"missing","server":"http://cropgalaxy.excellenceinbreeding.org/"},{"state":"missing","server":"http://dintor.eurac.edu/"},{"state":"missing","server":"http://www.freebioinfo.org/"},{"state":"missing","server":"http://igg.cloud.ba.infn.it/galaxy"},{"state":"exact","version":"0.72+galaxy1","server":"https://galaxy.mesocentre.uca.fr"},{"state":"inexact","versions":["0.74+galaxy0"],"server":"https://galaxy.pasteur.fr/"},{"state":"exact","version":"0.72+galaxy1","server":"https://galaxytrakr.org/"},{"state":"missing","server":"http://hyperbrowser.uio.no/hb/"},{"state":"missing","server":"http://gigagalaxy.net/"},{"state":"missing","server":"https://galaxy-web.ipk-gatersleben.de"},{"state":"missing","server":"https://www.immportgalaxy.org/"},{"state":"missing","server":"http://galaxy.interactomix.com/"},{"state":"missing","server":"http://galaxy.ul.edu.lb/"},{"state":"inexact","versions":["0.74+galaxy0"],"server":"https://mississippi.sorbonne-universite.fr"},{"state":"missing","server":"https://neo.engr.uconn.edu/"},{"state":"missing","server":"http://mapping-by-sequencing.vm.uni-freiburg.de:8080/"},{"state":"missing","server":"http://galaxy.inf.ethz.ch"},{"state":"exact","version":"0.72+galaxy1","server":"https://palfinder.ls.manchester.ac.uk/"},{"state":"inexact","versions":["0.74+galaxy0"],"server":"http://pepsimili.e-nios.com:8080/"},{"state":"inexact","versions":["0.74+galaxy0"],"server":"https://galaxy.bio.di.uminho.pt/"},{"state":"exact","version":"0.72+galaxy1","server":"https://usegalaxy.be/"},{"state":"inexact","versions":["0.74+galaxy0","0.69","0.65","0.52","0.67","0.68","0.63","0.64","0.62"],"server":"https://usegalaxy.cz/"},{"state":"exact","version":"0.72+galaxy1","server":"https://usegalaxy.eu"},{"state":"exact","version":"0.72+galaxy1","server":"https://usegalaxy.fr/"},{"state":"exact","version":"0.72+galaxy1","server":"https://usegalaxy.no/"},{"state":"exact","version":"0.72+galaxy1","server":"https://usegalaxy.org"},{"state":"exact","version":"0.72+galaxy1","server":"https://usegalaxy.org.au"},{"state":"missing","server":"https://viralvariant.anses.fr/"}],"version":"0.72+galaxy1"},{"id":"toolshed.g2.bx.psu.edu/repos/iuc/umi_tools_extract/umi_tools_extract/0.5.5.1","servers":[{"state":"missing","server":"http://apostl.moffitt.org/"},{"state":"missing","server":"http://smile.hku.hk/SARGs"},{"state":"missing","server":"https://iris.angers.inra.fr/galaxypub-cfbp"},{"state":"missing","server":"https://vm-chemflow-francegrille.eu/"},{"state":"missing","server":"https://hyperbrowser.uio.no/coloc-stats"},{"state":"missing","server":"https://coralsnp.science.psu.edu/galaxy/"},{"state":"missing","server":"http://cropgalaxy.excellenceinbreeding.org/"},{"state":"missing","server":"http://dintor.eurac.edu/"},{"state":"missing","server":"http://www.freebioinfo.org/"},{"state":"missing","server":"http://igg.cloud.ba.infn.it/galaxy"},{"state":"missing","server":"https://galaxy.mesocentre.uca.fr"},{"state":"missing","server":"https://galaxy.pasteur.fr/"},{"state":"missing","server":"https://galaxytrakr.org/"},{"state":"missing","server":"http://hyperbrowser.uio.no/hb/"},{"state":"missing","server":"http://gigagalaxy.net/"},{"state":"missing","server":"https://galaxy-web.ipk-gatersleben.de"},{"state":"missing","server":"https://www.immportgalaxy.org/"},{"state":"missing","server":"http://galaxy.interactomix.com/"},{"state":"missing","server":"http://galaxy.ul.edu.lb/"},{"state":"inexact","versions":["1.1.2+galaxy2"],"server":"https://mississippi.sorbonne-universite.fr"},{"state":"missing","server":"https://neo.engr.uconn.edu/"},{"state":"missing","server":"http://mapping-by-sequencing.vm.uni-freiburg.de:8080/"},{"state":"missing","server":"http://galaxy.inf.ethz.ch"},{"state":"missing","server":"https://palfinder.ls.manchester.ac.uk/"},{"state":"missing","server":"http://pepsimili.e-nios.com:8080/"},{"state":"missing","server":"https://galaxy.bio.di.uminho.pt/"},{"state":"inexact","versions":["0.5.3.2"],"server":"https://usegalaxy.be/"},{"state":"inexact","versions":["1.1.2+galaxy2"],"server":"https://usegalaxy.cz/"},{"state":"exact","version":"0.5.5.1","server":"https://usegalaxy.eu"},{"state":"inexact","versions":["1.1.2+galaxy2","1.1.5+galaxy0","1.1.5+galaxy1"],"server":"https://usegalaxy.fr/"},{"state":"exact","version":"0.5.5.1","server":"https://usegalaxy.no/"},{"state":"exact","version":"0.5.5.1","server":"https://usegalaxy.org"},{"state":"exact","version":"0.5.5.1","server":"https://usegalaxy.org.au"},{"state":"missing","server":"https://viralvariant.anses.fr/"}],"version":"0.5.5.1"},{"id":"toolshed.g2.bx.psu.edu/repos/peterjc/seq_filter_by_id/seq_filter_by_id/0.2.7","servers":[{"state":"missing","server":"http://apostl.moffitt.org/"},{"state":"missing","server":"http://smile.hku.hk/SARGs"},{"state":"missing","server":"https://iris.angers.inra.fr/galaxypub-cfbp"},{"state":"missing","server":"https://vm-chemflow-francegrille.eu/"},{"state":"missing","server":"https://hyperbrowser.uio.no/coloc-stats"},{"state":"missing","server":"https://coralsnp.science.psu.edu/galaxy/"},{"state":"missing","server":"http://cropgalaxy.excellenceinbreeding.org/"},{"state":"missing","server":"http://dintor.eurac.edu/"},{"state":"missing","server":"http://www.freebioinfo.org/"},{"state":"missing","server":"http://igg.cloud.ba.infn.it/galaxy"},{"state":"missing","server":"https://galaxy.mesocentre.uca.fr"},{"state":"missing","server":"https://galaxy.pasteur.fr/"},{"state":"exact","version":"0.2.7","server":"https://galaxytrakr.org/"},{"state":"missing","server":"http://hyperbrowser.uio.no/hb/"},{"state":"missing","server":"http://gigagalaxy.net/"},{"state":"missing","server":"https://galaxy-web.ipk-gatersleben.de"},{"state":"missing","server":"https://www.immportgalaxy.org/"},{"state":"missing","server":"http://galaxy.interactomix.com/"},{"state":"missing","server":"http://galaxy.ul.edu.lb/"},{"state":"missing","server":"https://mississippi.sorbonne-universite.fr"},{"state":"missing","server":"https://neo.engr.uconn.edu/"},{"state":"missing","server":"http://mapping-by-sequencing.vm.uni-freiburg.de:8080/"},{"state":"missing","server":"http://galaxy.inf.ethz.ch"},{"state":"missing","server":"https://palfinder.ls.manchester.ac.uk/"},{"state":"missing","server":"http://pepsimili.e-nios.com:8080/"},{"state":"missing","server":"https://galaxy.bio.di.uminho.pt/"},{"state":"missing","server":"https://usegalaxy.be/"},{"state":"exact","version":"0.2.7","server":"https://usegalaxy.cz/"},{"state":"exact","version":"0.2.7","server":"https://usegalaxy.eu"},{"state":"exact","version":"0.2.7","server":"https://usegalaxy.fr/"},{"state":"exact","version":"0.2.7","server":"https://usegalaxy.no/"},{"state":"exact","version":"0.2.7","server":"https://usegalaxy.org"},{"state":"exact","version":"0.2.7","server":"https://usegalaxy.org.au"},{"state":"missing","server":"https://viralvariant.anses.fr/"}],"version":"0.2.7"}]},"topic_name_human":"Single Cell","admin_install":{"install_tool_dependencies":true,"install_repository_dependencies":true,"install_resolver_dependencies":true,"tools":[{"name":"fastqc","owner":"devteam","revisions":"e7b2202befea","tool_panel_section_label":"FASTA/FASTQ","tool_shed_url":"https://toolshed.g2.bx.psu.edu/"},{"name":"umi_tools_extract","owner":"iuc","revisions":"6a675c3aa610","tool_panel_section_label":"FASTA/FASTQ","tool_shed_url":"https://toolshed.g2.bx.psu.edu/"},{"name":"seq_filter_by_id","owner":"peterjc","revisions":"141612f8c3e3","tool_panel_section_label":"Filter and Sort","tool_shed_url":"https://toolshed.g2.bx.psu.edu/"}]},"admin_install_yaml":"---\ninstall_tool_dependencies: true\ninstall_repository_dependencies: true\ninstall_resolver_dependencies: true\ntools:\n- name: fastqc\n  owner: devteam\n  revisions: e7b2202befea\n  tool_panel_section_label: FASTA/FASTQ\n  tool_shed_url: https://toolshed.g2.bx.psu.edu/\n- name: umi_tools_extract\n  owner: iuc\n  revisions: 6a675c3aa610\n  tool_panel_section_label: FASTA/FASTQ\n  tool_shed_url: https://toolshed.g2.bx.psu.edu/\n- name: seq_filter_by_id\n  owner: peterjc\n  revisions: 141612f8c3e3\n  tool_panel_section_label: Filter and Sort\n  tool_shed_url: https://toolshed.g2.bx.psu.edu/\n","tours":false,"video":false,"slides_recordings":false,"translations":{"tutorial":[],"slides":[],"video":false},"license":"CC-BY-4.0","type":"tutorial","contributors":[{"name":"Mehmet Tekman","email":"mtekman89@gmail.com","joined":"2018-11","elixir_node":"de","affiliations":["uni-freiburg"],"former_affiliations":["elixir-europe"],"id":"mtekman","url":"https://training.galaxyproject.org/training-material/api/contributors/mtekman.json","page":"https://training.galaxyproject.org/training-material/hall-of-fame/mtekman/"},{"name":"Mehmet Tekman","email":"mtekman89@gmail.com","joined":"2018-11","elixir_node":"de","affiliations":["uni-freiburg"],"former_affiliations":["elixir-europe"],"id":"mtekman","url":"https://training.galaxyproject.org/training-material/api/contributors/mtekman.json","page":"https://training.galaxyproject.org/training-material/hall-of-fame/mtekman/"},{"name":"Lucille Delisle","email":"lucille.delisle@epfl.ch","orcid":"0000-0002-1964-4960","joined":"2019-08","elixir_node":"ch","contact_for_training":true,"location":{"country":"CH","lat":46.52,"lon":6.56},"affiliations":["elixir-europe"],"id":"lldelisle","url":"https://training.galaxyproject.org/training-material/api/contributors/lldelisle.json","page":"https://training.galaxyproject.org/training-material/hall-of-fame/lldelisle/"},{"name":"Helena Rasche","orcid":"0000-0001-9760-8992","maintainer_contact":"gitter","matrix":"hexylena:matrix.org","joined":"2017-09","elixir_node":"nl","affiliations":["erasmusmc","gallantries","by-covid","elixir-europe","elixir-converge"],"former_affiliations":["deNBI","avans-atgm","uni-freiburg"],"contact_for_training":false,"location":{"country":"NL","lat":51.91,"lon":4.46},"id":"hexylena","url":"https://training.galaxyproject.org/training-material/api/contributors/hexylena.json","page":"https://training.galaxyproject.org/training-material/hall-of-fame/hexylena/"},{"name":"Saskia Hiltemann","maintainer_contact":"gitter","email":"saskia.hiltemann@gmail.com","fediverse":"https://mstdn.science/@shiltemann","fediverse_flavor":"mastodon","bluesky":"shiltemann.bsky.social","linkedin":"shiltemann","matrix":"shiltemann:matrix.org","orcid":"0000-0003-3803-468X","joined":"2017-09","bio":"Researcher at Erasmus Medical Center","elixir_node":"nl","contact_for_training":true,"affiliations":["uni-freiburg","nfdi4plants","elixir-europe"],"former_affiliations":["CINECA-Project","gallantries","erasmusmc"],"location":{"country":"NL","lat":51.912,"lon":4.462},"id":"shiltemann","url":"https://training.galaxyproject.org/training-material/api/contributors/shiltemann.json","page":"https://training.galaxyproject.org/training-material/hall-of-fame/shiltemann/"},{"name":"Nicola Soranzo","matrix":"nsoranzo:matrix.org","orcid":"0000-0003-3627-5340","twitter":"NicolaSoranzo","joined":"2017-09","elixir_node":"uk","fediverse":"https://mstdn.science/@nsoranzo","fediverse_flavor":"mastodon","linkedin":"nicola-soranzo-7884125","affiliations":["earlham","elixir-europe"],"id":"nsoranzo","url":"https://training.galaxyproject.org/training-material/api/contributors/nsoranzo.json","page":"https://training.galaxyproject.org/training-material/hall-of-fame/nsoranzo/"},{"name":"Bérénice Batut","email":"berenice.batut@gmail.com","twitter":"bebatut","linkedin":"berenicebatut","matrix":"bebatut:matrix.org","orcid":"0000-0001-9852-1987","joined":"2017-09","elixir_node":"fr","contact_for_training":true,"location":{"country":"FR","lat":45.77,"lon":3.08},"fediverse":"https://piaille.fr/@bebatut","fediverse_flavor":"mastodon","affiliations":["gallantries","ifb","elixir-europe"],"id":"bebatut","url":"https://training.galaxyproject.org/training-material/api/contributors/bebatut.json","page":"https://training.galaxyproject.org/training-material/hall-of-fame/bebatut/"},{"name":"Björn Grüning","email":"bjoern.gruening@gmail.com","twitter":"bjoerngruening","fediverse":"https://fosstodon.org/@bgruening","fediverse_flavor":"mastodon","matrix":"bgruening:matrix.org","orcid":"0000-0002-3079-6586","elixir_node":"de","linkedin":"bgruening","contact_for_training":true,"joined":"2017-09","location":{"country":"DE","lat":47.997791,"lon":7.842609},"affiliations":["eurosciencegateway","eosc-life","by-covid","deNBI","sfb992","elixir-converge","uni-freiburg","elixir-europe"],"id":"bgruening","url":"https://training.galaxyproject.org/training-material/api/contributors/bgruening.json","page":"https://training.galaxyproject.org/training-material/hall-of-fame/bgruening/"},{"name":"Wendi Bacon","email":"wendi.bacon@open.ac.uk","twitter":"WendiBacon1","matrix":"nomadscientist:matrix.org","joined":"2020-03","elixir_node":"uk","orcid":"0000-0002-8170-8806","bio":"Senior Lecturer at The Open University","fediverse":"https://mstdn.science/@wendibacon1","fediverse_flavor":"mastodon","affiliations":["elixir-europe"],"id":"nomadscientist","url":"https://training.galaxyproject.org/training-material/api/contributors/nomadscientist.json","page":"https://training.galaxyproject.org/training-material/hall-of-fame/nomadscientist/"}]}