{"layout":"tutorial_hands_on","title":"Refining Genome Annotations with Apollo (eukaryotes)","zenodo_link":"https://zenodo.org/record/3270822","tags":["gmod","eukaryote","cyoa","jbrowse1","apollo2"],"questions":["How to visualize your genome after automated annotations have been performed?","How to manually annotate genome after automated annotations have been performed?","How to evaluate and visualize annotated genomic features?","How do I collaborate when doing genome annotation?"],"objectives":["Load a genome into Galaxy","View annotations in JBrowse","Learn how to load JBrowse data into Apollo","Learn how to manually refine genome annotations within Apollo","Export refined genome annotations"],"time_estimation":"3h","level":"Intermediate","key_points":["Apollo is the Google Docs of the genome annotation world, real-time collaborative genome annotation.","Apollo allows a group to view and manually refine predicted genome annotations","Use Apollo to edit annotations within your group.","Export manual annotations as GFF3."],"contributions":{"authorship":["abretaud"],"funding":["gallantries","eurosciencegateway"],"reviewing":["bgruening","shiltemann","hexylena","JasperO98","bebatut","abretaud"]},"requirements":[{"type":"internal","topic_name":"galaxy-interface","tutorials":["upload-rules"]},{"type":"internal","topic_name":"genome-annotation","tutorials":["funannotate"]}],"subtopic":"eukaryote","priority":6,"abbreviations":{"OGS":"Official Gene Set"},"js_requirements":{"mathjax":null,"mermaid":false},"short_id":"T00170","symlink":null,"url":"/topics/genome-annotation/tutorials/apollo-euk/tutorial.html","topic_name":"genome-annotation","tutorial_name":"apollo-euk","dir":"topics/genome-annotation/tutorials/apollo-euk","id":"genome-annotation/apollo-euk","hands_on":true,"slides":false,"mod_date":"2024-02-29 13:37:23 +0000","pub_date":"2022-08-22 19:31:27 +0000","version":13,"api":"https://training.galaxyproject.org/training-material/api/topics/genome-annotation/tutorials/apollo-euk/tutorial.json","tools":["toolshed.g2.bx.psu.edu/repos/gga/apollo_create_or_update/create_or_update/4.2.5","toolshed.g2.bx.psu.edu/repos/gga/apollo_iframe/iframe/4.2.5","toolshed.g2.bx.psu.edu/repos/iuc/jbrowse/jbrowse/1.16.11+galaxy1"],"supported_servers":{"exact":[{"url":"https://usegalaxy.no/","name":"UseGalaxy.no","usegalaxy":false}],"inexact":[{"url":"https://usegalaxy.cz/","name":"UseGalaxy.cz","usegalaxy":false},{"url":"https://usegalaxy.eu","name":"UseGalaxy.eu","usegalaxy":true}]},"supported_servers_matrix":{"servers":[{"url":"http://apostl.moffitt.org/","name":"APOSTL"},{"url":"http://smile.hku.hk/SARGs","name":"ARGs-OAP"},{"url":"https://iris.angers.inra.fr/galaxypub-cfbp","name":"CIRM-CFBP"},{"url":"https://vm-chemflow-francegrille.eu/","name":"ChemFlow"},{"url":"https://hyperbrowser.uio.no/coloc-stats","name":"Coloc-stats"},{"url":"https://coralsnp.science.psu.edu/galaxy/","name":"CoralSNP"},{"url":"http://cropgalaxy.excellenceinbreeding.org/","name":"CropGalaxy"},{"url":"http://dintor.eurac.edu/","name":"Dintor"},{"url":"http://www.freebioinfo.org/","name":"FreeBioinfo"},{"url":"http://igg.cloud.ba.infn.it/galaxy","name":"GASLINI"},{"url":"https://galaxy.mesocentre.uca.fr","name":"Galaxy@AuBi","usegalaxy":false},{"url":"https://galaxy.pasteur.fr/","name":"Galaxy@Pasteur","usegalaxy":false},{"url":"https://galaxytrakr.org/","name":"GalaxyTrakr","usegalaxy":false},{"url":"http://hyperbrowser.uio.no/hb/","name":"Genomic Hyperbrowser"},{"url":"http://gigagalaxy.net/","name":"GigaGalaxy"},{"url":"https://galaxy-web.ipk-gatersleben.de","name":"IPK Galaxy Blast Suite"},{"url":"https://www.immportgalaxy.org/","name":"ImmPort Galaxy"},{"url":"http://galaxy.interactomix.com/","name":"InteractoMIX"},{"url":"http://galaxy.ul.edu.lb/","name":"Lebanese University Galaxy"},{"url":"https://mississippi.sorbonne-universite.fr","name":"MISSISSIPPI","usegalaxy":false},{"url":"https://neo.engr.uconn.edu/","name":"Mandoiu Lab"},{"url":"http://mapping-by-sequencing.vm.uni-freiburg.de:8080/","name":"MiModD NacreousMap"},{"url":"http://galaxy.inf.ethz.ch","name":"Oqtans"},{"url":"https://palfinder.ls.manchester.ac.uk/","name":"Palfinder"},{"url":"http://pepsimili.e-nios.com:8080/","name":"PepSimili","usegalaxy":false},{"url":"https://galaxy.bio.di.uminho.pt/","name":"PhagePromotor","usegalaxy":false},{"url":"https://usegalaxy.be/","name":"UseGalaxy.be","usegalaxy":false},{"url":"https://usegalaxy.cz/","name":"UseGalaxy.cz","usegalaxy":false},{"url":"https://usegalaxy.eu","name":"UseGalaxy.eu","usegalaxy":true},{"url":"https://usegalaxy.fr/","name":"UseGalaxy.fr","usegalaxy":false},{"url":"https://usegalaxy.no/","name":"UseGalaxy.no","usegalaxy":false},{"url":"https://usegalaxy.org","name":"UseGalaxy.org (Main)","usegalaxy":true},{"url":"https://usegalaxy.org.au","name":"UseGalaxy.org.au","usegalaxy":true},{"url":"https://viralvariant.anses.fr/","name":"Viral Variant Visualizer (VVV)"}],"tools":[{"id":"toolshed.g2.bx.psu.edu/repos/gga/apollo_create_or_update/create_or_update/4.2.5","servers":[{"state":"missing","server":"http://apostl.moffitt.org/"},{"state":"missing","server":"http://smile.hku.hk/SARGs"},{"state":"missing","server":"https://iris.angers.inra.fr/galaxypub-cfbp"},{"state":"missing","server":"https://vm-chemflow-francegrille.eu/"},{"state":"missing","server":"https://hyperbrowser.uio.no/coloc-stats"},{"state":"missing","server":"https://coralsnp.science.psu.edu/galaxy/"},{"state":"missing","server":"http://cropgalaxy.excellenceinbreeding.org/"},{"state":"missing","server":"http://dintor.eurac.edu/"},{"state":"missing","server":"http://www.freebioinfo.org/"},{"state":"missing","server":"http://igg.cloud.ba.infn.it/galaxy"},{"state":"missing","server":"https://galaxy.mesocentre.uca.fr"},{"state":"missing","server":"https://galaxy.pasteur.fr/"},{"state":"missing","server":"https://galaxytrakr.org/"},{"state":"missing","server":"http://hyperbrowser.uio.no/hb/"},{"state":"missing","server":"http://gigagalaxy.net/"},{"state":"missing","server":"https://galaxy-web.ipk-gatersleben.de"},{"state":"missing","server":"https://www.immportgalaxy.org/"},{"state":"missing","server":"http://galaxy.interactomix.com/"},{"state":"missing","server":"http://galaxy.ul.edu.lb/"},{"state":"missing","server":"https://mississippi.sorbonne-universite.fr"},{"state":"missing","server":"https://neo.engr.uconn.edu/"},{"state":"missing","server":"http://mapping-by-sequencing.vm.uni-freiburg.de:8080/"},{"state":"missing","server":"http://galaxy.inf.ethz.ch"},{"state":"missing","server":"https://palfinder.ls.manchester.ac.uk/"},{"state":"missing","server":"http://pepsimili.e-nios.com:8080/"},{"state":"missing","server":"https://galaxy.bio.di.uminho.pt/"},{"state":"missing","server":"https://usegalaxy.be/"},{"state":"inexact","versions":["4.2.13+galaxy0"],"server":"https://usegalaxy.cz/"},{"state":"inexact","versions":["4.2.13+galaxy0"],"server":"https://usegalaxy.eu"},{"state":"missing","server":"https://usegalaxy.fr/"},{"state":"exact","version":"4.2.5","server":"https://usegalaxy.no/"},{"state":"missing","server":"https://usegalaxy.org"},{"state":"missing","server":"https://usegalaxy.org.au"},{"state":"missing","server":"https://viralvariant.anses.fr/"}],"version":"4.2.5"},{"id":"toolshed.g2.bx.psu.edu/repos/gga/apollo_iframe/iframe/4.2.5","servers":[{"state":"missing","server":"http://apostl.moffitt.org/"},{"state":"missing","server":"http://smile.hku.hk/SARGs"},{"state":"missing","server":"https://iris.angers.inra.fr/galaxypub-cfbp"},{"state":"missing","server":"https://vm-chemflow-francegrille.eu/"},{"state":"missing","server":"https://hyperbrowser.uio.no/coloc-stats"},{"state":"missing","server":"https://coralsnp.science.psu.edu/galaxy/"},{"state":"missing","server":"http://cropgalaxy.excellenceinbreeding.org/"},{"state":"missing","server":"http://dintor.eurac.edu/"},{"state":"missing","server":"http://www.freebioinfo.org/"},{"state":"missing","server":"http://igg.cloud.ba.infn.it/galaxy"},{"state":"missing","server":"https://galaxy.mesocentre.uca.fr"},{"state":"missing","server":"https://galaxy.pasteur.fr/"},{"state":"missing","server":"https://galaxytrakr.org/"},{"state":"missing","server":"http://hyperbrowser.uio.no/hb/"},{"state":"missing","server":"http://gigagalaxy.net/"},{"state":"missing","server":"https://galaxy-web.ipk-gatersleben.de"},{"state":"missing","server":"https://www.immportgalaxy.org/"},{"state":"missing","server":"http://galaxy.interactomix.com/"},{"state":"missing","server":"http://galaxy.ul.edu.lb/"},{"state":"missing","server":"https://mississippi.sorbonne-universite.fr"},{"state":"missing","server":"https://neo.engr.uconn.edu/"},{"state":"missing","server":"http://mapping-by-sequencing.vm.uni-freiburg.de:8080/"},{"state":"missing","server":"http://galaxy.inf.ethz.ch"},{"state":"missing","server":"https://palfinder.ls.manchester.ac.uk/"},{"state":"missing","server":"http://pepsimili.e-nios.com:8080/"},{"state":"missing","server":"https://galaxy.bio.di.uminho.pt/"},{"state":"missing","server":"https://usegalaxy.be/"},{"state":"inexact","versions":["4.2.13+galaxy0"],"server":"https://usegalaxy.cz/"},{"state":"exact","version":"4.2.5","server":"https://usegalaxy.eu"},{"state":"missing","server":"https://usegalaxy.fr/"},{"state":"exact","version":"4.2.5","server":"https://usegalaxy.no/"},{"state":"missing","server":"https://usegalaxy.org"},{"state":"missing","server":"https://usegalaxy.org.au"},{"state":"missing","server":"https://viralvariant.anses.fr/"}],"version":"4.2.5"},{"id":"toolshed.g2.bx.psu.edu/repos/iuc/jbrowse/jbrowse/1.16.11+galaxy1","servers":[{"state":"missing","server":"http://apostl.moffitt.org/"},{"state":"missing","server":"http://smile.hku.hk/SARGs"},{"state":"missing","server":"https://iris.angers.inra.fr/galaxypub-cfbp"},{"state":"missing","server":"https://vm-chemflow-francegrille.eu/"},{"state":"missing","server":"https://hyperbrowser.uio.no/coloc-stats"},{"state":"missing","server":"https://coralsnp.science.psu.edu/galaxy/"},{"state":"missing","server":"http://cropgalaxy.excellenceinbreeding.org/"},{"state":"missing","server":"http://dintor.eurac.edu/"},{"state":"missing","server":"http://www.freebioinfo.org/"},{"state":"missing","server":"http://igg.cloud.ba.infn.it/galaxy"},{"state":"exact","version":"1.16.11+galaxy1","server":"https://galaxy.mesocentre.uca.fr"},{"state":"exact","version":"1.16.11+galaxy1","server":"https://galaxy.pasteur.fr/"},{"state":"exact","version":"1.16.11+galaxy1","server":"https://galaxytrakr.org/"},{"state":"missing","server":"http://hyperbrowser.uio.no/hb/"},{"state":"missing","server":"http://gigagalaxy.net/"},{"state":"missing","server":"https://galaxy-web.ipk-gatersleben.de"},{"state":"missing","server":"https://www.immportgalaxy.org/"},{"state":"missing","server":"http://galaxy.interactomix.com/"},{"state":"missing","server":"http://galaxy.ul.edu.lb/"},{"state":"exact","version":"1.16.11+galaxy1","server":"https://mississippi.sorbonne-universite.fr"},{"state":"missing","server":"https://neo.engr.uconn.edu/"},{"state":"missing","server":"http://mapping-by-sequencing.vm.uni-freiburg.de:8080/"},{"state":"missing","server":"http://galaxy.inf.ethz.ch"},{"state":"missing","server":"https://palfinder.ls.manchester.ac.uk/"},{"state":"missing","server":"http://pepsimili.e-nios.com:8080/"},{"state":"missing","server":"https://galaxy.bio.di.uminho.pt/"},{"state":"inexact","versions":["1.16.9+galaxy0","1.16.10+galaxy0","1.16.5+galaxy5","1.16.8+galaxy0","1.16.4+galaxy3","1.12.5+galaxy0","0.1","1.16.1+galaxy0","1.16.8+galaxy1","1.12.5+galaxy2","1.16.4+galaxy2","1.16.5+galaxy6","1.16.5+galaxy3","1.12.5+galaxy3","0.5.2.1","1.16.5+galaxy7","1.12.5+galaxy1","0.7.0.3","1.16.5+galaxy4"],"server":"https://usegalaxy.be/"},{"state":"exact","version":"1.16.11+galaxy1","server":"https://usegalaxy.cz/"},{"state":"exact","version":"1.16.11+galaxy1","server":"https://usegalaxy.eu"},{"state":"exact","version":"1.16.11+galaxy1","server":"https://usegalaxy.fr/"},{"state":"exact","version":"1.16.11+galaxy1","server":"https://usegalaxy.no/"},{"state":"exact","version":"1.16.11+galaxy1","server":"https://usegalaxy.org"},{"state":"exact","version":"1.16.11+galaxy1","server":"https://usegalaxy.org.au"},{"state":"missing","server":"https://viralvariant.anses.fr/"}],"version":"1.16.11+galaxy1"}]},"topic_name_human":"Genome Annotation","admin_install":{"install_tool_dependencies":true,"install_repository_dependencies":true,"install_resolver_dependencies":true,"tools":[{"name":"apollo_create_or_update","owner":"gga","revisions":"4abaab60f9e1","tool_panel_section_label":"Apollo","tool_shed_url":"https://toolshed.g2.bx.psu.edu/"},{"name":"apollo_iframe","owner":"gga","revisions":"f4e3f9480307","tool_panel_section_label":"Apollo","tool_shed_url":"https://toolshed.g2.bx.psu.edu/"},{"name":"jbrowse","owner":"iuc","revisions":"a6e57ff585c0","tool_panel_section_label":"Graph/Display Data","tool_shed_url":"https://toolshed.g2.bx.psu.edu/"}]},"admin_install_yaml":"---\ninstall_tool_dependencies: true\ninstall_repository_dependencies: true\ninstall_resolver_dependencies: true\ntools:\n- name: apollo_create_or_update\n  owner: gga\n  revisions: 4abaab60f9e1\n  tool_panel_section_label: Apollo\n  tool_shed_url: https://toolshed.g2.bx.psu.edu/\n- name: apollo_iframe\n  owner: gga\n  revisions: f4e3f9480307\n  tool_panel_section_label: Apollo\n  tool_shed_url: https://toolshed.g2.bx.psu.edu/\n- name: jbrowse\n  owner: iuc\n  revisions: a6e57ff585c0\n  tool_panel_section_label: Graph/Display Data\n  tool_shed_url: https://toolshed.g2.bx.psu.edu/\n","tours":false,"video":false,"slides_recordings":false,"translations":{"tutorial":[],"slides":[],"video":false},"license":"CC-BY-4.0","type":"tutorial","contributors":[{"name":"Anthony Bretaudeau","email":"anthony.bretaudeau@inrae.fr","twitter":"abretau","matrix":"abretaud:matrix.org","orcid":"0000-0003-0914-2470","joined":"2017-09","elixir_node":"fr","contact_for_training":true,"location":{"country":"FR","lat":48.11,"lon":-1.64},"fediverse":"https://genomic.social/@abretaud","fediverse_flavor":"mastodon","affiliations":["gallantries","eurosciencegateway","elixir-europe"],"id":"abretaud","url":"https://training.galaxyproject.org/training-material/api/contributors/abretaud.json","page":"https://training.galaxyproject.org/training-material/hall-of-fame/abretaud/"},{"name":"Gallantries: Bridging Training Communities in Life Science, Environment and Health","short_name":"Gallantries","start_date":"2020-09-01","end_date":"2023-09-30","joined":"2020-09","avatar":"https://gallantries.github.io/assets/images/gallantries-logo.png","github":false,"url":"https://training.galaxyproject.org/training-material/api/grants/gallantries.json","funder_name":"Erasmus+ Programme","funding_id":"2020-1-NL01-KA203-064717","funding_database":"erasmusplus","funding_statement":"This project (<a href=\"https://erasmus-plus.ec.europa.eu/projects/search/details/2020-1-NL01-KA203-064717\"><code class=\"language-plaintext highlighter-rouge\">2020-1-NL01-KA203-064717</code></a>) is funded with the support of the Erasmus+ programme of the European Union. Their funding has supported a large number of tutorials within the GTN across a wide array of topics.\n<img src=\"https://gallantries.github.io/assets/images/logosbeneficaireserasmusright_en.jpg\" alt=\"eu flag with the text: with the support of the erasmus programme of the european union\" />\n<img src=\"https://www.erasmusplus.nl/assets/images/logo.png\" alt=\"erasmus plus logo\" />","members":["abretaud","bebatut","colineroyaux","fpsom","hexylena","yvanlebras"],"former_members":["shiltemann"],"id":"gallantries","page":"https://training.galaxyproject.org/training-material/hall-of-fame/gallantries/"},{"name":"EuroScienceGateway","github":false,"joined":"2023-10","avatar":"/training-material/assets/images/eurosciencegateway.png","url":"https://training.galaxyproject.org/training-material/api/grants/eurosciencegateway.json","funding_id":"101057388","funding_database":"cordis","funding_statement":"EuroScienceGateway was funded by the European Union programme Horizon Europe (HORIZON-INFRA-2021-EOSC-01-04) under grant agreement number 101057388 and by UK Research and Innovation (UKRI) under the UK government’s Horizon Europe funding guarantee grant number 10038963.","members":["abretaud","anuprulez","bgruening","erxleben","pauldg","rlibouba"],"id":"eurosciencegateway","page":"https://training.galaxyproject.org/training-material/hall-of-fame/eurosciencegateway/"},{"name":"Björn Grüning","email":"bjoern.gruening@gmail.com","twitter":"bjoerngruening","fediverse":"https://fosstodon.org/@bgruening","fediverse_flavor":"mastodon","matrix":"bgruening:matrix.org","orcid":"0000-0002-3079-6586","elixir_node":"de","linkedin":"bgruening","contact_for_training":true,"joined":"2017-09","location":{"country":"DE","lat":47.997791,"lon":7.842609},"affiliations":["eurosciencegateway","eosc-life","by-covid","deNBI","sfb992","elixir-converge","uni-freiburg","elixir-europe"],"id":"bgruening","url":"https://training.galaxyproject.org/training-material/api/contributors/bgruening.json","page":"https://training.galaxyproject.org/training-material/hall-of-fame/bgruening/"},{"name":"Saskia Hiltemann","maintainer_contact":"gitter","email":"saskia.hiltemann@gmail.com","fediverse":"https://mstdn.science/@shiltemann","fediverse_flavor":"mastodon","bluesky":"shiltemann.bsky.social","linkedin":"shiltemann","matrix":"shiltemann:matrix.org","orcid":"0000-0003-3803-468X","joined":"2017-09","bio":"Researcher at Erasmus Medical Center","elixir_node":"nl","contact_for_training":true,"affiliations":["uni-freiburg","nfdi4plants","elixir-europe"],"former_affiliations":["CINECA-Project","gallantries","erasmusmc"],"location":{"country":"NL","lat":51.912,"lon":4.462},"id":"shiltemann","url":"https://training.galaxyproject.org/training-material/api/contributors/shiltemann.json","page":"https://training.galaxyproject.org/training-material/hall-of-fame/shiltemann/"},{"name":"Helena Rasche","orcid":"0000-0001-9760-8992","maintainer_contact":"gitter","matrix":"hexylena:matrix.org","joined":"2017-09","elixir_node":"nl","affiliations":["erasmusmc","gallantries","by-covid","elixir-europe","elixir-converge"],"former_affiliations":["deNBI","avans-atgm","uni-freiburg"],"contact_for_training":false,"location":{"country":"NL","lat":51.91,"lon":4.46},"id":"hexylena","url":"https://training.galaxyproject.org/training-material/api/contributors/hexylena.json","page":"https://training.galaxyproject.org/training-material/hall-of-fame/hexylena/"},{"name":"Jasper Ouwerkerk","email":"j.ouwerkerk.1@erasmusmc.nl","joined":"2022-04","elixir_node":"nl","affiliations":["elixir-europe"],"id":"JasperO98","url":"https://training.galaxyproject.org/training-material/api/contributors/JasperO98.json","page":"https://training.galaxyproject.org/training-material/hall-of-fame/JasperO98/"},{"name":"Bérénice Batut","email":"berenice.batut@gmail.com","twitter":"bebatut","linkedin":"berenicebatut","matrix":"bebatut:matrix.org","orcid":"0000-0001-9852-1987","joined":"2017-09","elixir_node":"fr","contact_for_training":true,"location":{"country":"FR","lat":45.77,"lon":3.08},"fediverse":"https://piaille.fr/@bebatut","fediverse_flavor":"mastodon","affiliations":["gallantries","ifb","elixir-europe"],"id":"bebatut","url":"https://training.galaxyproject.org/training-material/api/contributors/bebatut.json","page":"https://training.galaxyproject.org/training-material/hall-of-fame/bebatut/"},{"name":"Anthony Bretaudeau","email":"anthony.bretaudeau@inrae.fr","twitter":"abretau","matrix":"abretaud:matrix.org","orcid":"0000-0003-0914-2470","joined":"2017-09","elixir_node":"fr","contact_for_training":true,"location":{"country":"FR","lat":48.11,"lon":-1.64},"fediverse":"https://genomic.social/@abretaud","fediverse_flavor":"mastodon","affiliations":["gallantries","eurosciencegateway","elixir-europe"],"id":"abretaud","url":"https://training.galaxyproject.org/training-material/api/contributors/abretaud.json","page":"https://training.galaxyproject.org/training-material/hall-of-fame/abretaud/"}]}