{
  "type": "FeatureCollection",
  "features": [
    {
      "type": "Feature",
      "geometry": {
        "type": "Point",
        "coordinates": [
          -1.64,
          48.11
        ]
      },
      "properties": {
        "name": "Anthony Bretaudeau",
        "url": "https://training.galaxyproject.org/training-material/hall-of-fame/abretaud/",
        "joined": "2017-09",
        "orcid": "0000-0003-0914-2470",
        "id": "abretaud",
        "contact_for_training": true
      }
    },
    {
      "type": "Feature",
      "geometry": {
        "type": "Point",
        "coordinates": [
          4.46,
          51.91
        ]
      },
      "properties": {
        "name": "Helena Rasche",
        "url": "https://training.galaxyproject.org/training-material/hall-of-fame/hexylena/",
        "joined": "2017-09",
        "orcid": "0000-0001-9760-8992",
        "id": "hexylena",
        "contact_for_training": false
      }
    },
    {
      "type": "Feature",
      "geometry": {
        "type": "Point",
        "coordinates": [
          -122.0226576,
          36.969918
        ]
      },
      "properties": {
        "name": "Jennifer Hillman-Jackson",
        "url": "https://training.galaxyproject.org/training-material/hall-of-fame/jennaj/",
        "joined": "2018-06",
        "orcid": "0000-0003-4012-8116",
        "id": "jennaj",
        "contact_for_training": true
      }
    },
    {
      "type": "Feature",
      "geometry": {
        "type": "Point",
        "coordinates": [
          6.56,
          46.52
        ]
      },
      "properties": {
        "name": "Lucille Delisle",
        "url": "https://training.galaxyproject.org/training-material/hall-of-fame/lldelisle/",
        "joined": "2019-08",
        "orcid": "0000-0002-1964-4960",
        "id": "lldelisle",
        "contact_for_training": true
      }
    },
    {
      "type": "Feature",
      "geometry": {
        "type": "Point",
        "coordinates": [
          4.462,
          51.912
        ]
      },
      "properties": {
        "name": "Saskia Hiltemann",
        "url": "https://training.galaxyproject.org/training-material/hall-of-fame/shiltemann/",
        "joined": "2017-09",
        "orcid": "0000-0003-3803-468X",
        "id": "shiltemann",
        "contact_for_training": true
      }
    }
  ]
}