{"layout":"tutorial_hands_on","title":"Binning of metagenomic sequencing data","zenodo_link":"https://zenodo.org/record/7818827","extra":{"zenodo_link_results":"https://zenodo.org/record/7845138"},"level":"Introductory","questions":["What is metagenomic binning refers to?","Which tools should be used for metagenomic binning?","How to assess the quality of metagenomic data binning?"],"objectives":["Describe what metagenomics binning is","Describe common problems in metagenomics binning","What software tools are available for metagenomics binning","Binning of contigs into metagenome-assembled genomes (MAGs) using MetaBAT 2 software","Evaluation of MAG quality and completeness using CheckM software"],"time_estimation":"2H","key_points":["Metagenomics binning is a computational approach to grouping together DNA sequences from a mixed microbial sample into metagenome-assembled genomes (MAGs)","The metagenomics binning workflow involves several steps, including preprocessing of raw sequencing data, assembly of sequencing reads into contigs, binning of contigs into MAGs, quality assessment of MAGs, and annotation of functional genes and metabolic pathways in MAGs","The quality and completeness of MAGs can be evaluated using standard metrics, such as completeness, contamination, and genome size","Metagenomics binning can be used to gain insights into the composition, diversity, and functional potential of microbial communities, and can be applied to a range of research areas, such as human health, environmental microbiology, and biotechnology"],"contributions":{"authorship":["npechl","fpsom"],"reviewing":["teresa-m","deeptivarshney","bebatut","npechl","hexylena"]},"subtopic":"metagenomics","tags":["binning","metagenomics","microgalaxy"],"redirect_from":["/topics/metagenomics/tutorials/metagenomics-binning/tutorial","/short/microbiome/metagenomics-binning","/short/T00377","/short/T00387"],"edam_ontology":["topic_3174","topic_0196"],"recordings":[{"youtube_id":"m8ADGsRVqYI","length":"25M","galaxy_version":"24.1.2.dev0","date":"2024-08-30","speakers":["npechl"],"captioners":["npechl"],"bot-timestamp":1725013820}],"js_requirements":{"mathjax":null,"mermaid":false},"short_id":"T00387","symlink":null,"url":"/topics/microbiome/tutorials/metagenomics-binning/tutorial.html","topic_name":"microbiome","tutorial_name":"metagenomics-binning","dir":"topics/microbiome/tutorials/metagenomics-binning","id":"microbiome/metagenomics-binning","hands_on":true,"slides":false,"mod_date":"2024-09-12 07:15:48 +0000","pub_date":"2023-12-05 14:37:36 +0000","version":4,"api":"https://training.galaxyproject.org/training-material/api/topics/microbiome/tutorials/metagenomics-binning/tutorial.json","tools":["toolshed.g2.bx.psu.edu/repos/iuc/checkm_lineage_wf/checkm_lineage_wf/1.2.0+galaxy0","toolshed.g2.bx.psu.edu/repos/iuc/megahit/megahit/1.2.9+galaxy0"],"supported_servers":{"exact":[{"url":"https://galaxytrakr.org/","name":"GalaxyTrakr","usegalaxy":false},{"url":"https://usegalaxy.cz/","name":"UseGalaxy.cz","usegalaxy":false},{"url":"https://usegalaxy.eu","name":"UseGalaxy.eu","usegalaxy":true}],"inexact":[{"url":"https://usegalaxy.org","name":"UseGalaxy.org (Main)","usegalaxy":true},{"url":"https://usegalaxy.org.au","name":"UseGalaxy.org.au","usegalaxy":true}]},"supported_servers_matrix":{"servers":[{"url":"http://apostl.moffitt.org/","name":"APOSTL"},{"url":"http://smile.hku.hk/SARGs","name":"ARGs-OAP"},{"url":"https://iris.angers.inra.fr/galaxypub-cfbp","name":"CIRM-CFBP"},{"url":"https://vm-chemflow-francegrille.eu/","name":"ChemFlow"},{"url":"https://hyperbrowser.uio.no/coloc-stats","name":"Coloc-stats"},{"url":"https://coralsnp.science.psu.edu/galaxy/","name":"CoralSNP"},{"url":"http://cropgalaxy.excellenceinbreeding.org/","name":"CropGalaxy"},{"url":"http://dintor.eurac.edu/","name":"Dintor"},{"url":"http://www.freebioinfo.org/","name":"FreeBioinfo"},{"url":"http://igg.cloud.ba.infn.it/galaxy","name":"GASLINI"},{"url":"https://galaxy.mesocentre.uca.fr","name":"Galaxy@AuBi","usegalaxy":false},{"url":"https://galaxy.pasteur.fr/","name":"Galaxy@Pasteur","usegalaxy":false},{"url":"https://galaxytrakr.org/","name":"GalaxyTrakr","usegalaxy":false},{"url":"http://hyperbrowser.uio.no/hb/","name":"Genomic Hyperbrowser"},{"url":"http://gigagalaxy.net/","name":"GigaGalaxy"},{"url":"https://galaxy-web.ipk-gatersleben.de","name":"IPK Galaxy Blast Suite"},{"url":"https://www.immportgalaxy.org/","name":"ImmPort Galaxy"},{"url":"http://galaxy.interactomix.com/","name":"InteractoMIX"},{"url":"http://galaxy.ul.edu.lb/","name":"Lebanese University Galaxy"},{"url":"https://mississippi.sorbonne-universite.fr","name":"MISSISSIPPI","usegalaxy":false},{"url":"https://neo.engr.uconn.edu/","name":"Mandoiu Lab"},{"url":"http://mapping-by-sequencing.vm.uni-freiburg.de:8080/","name":"MiModD NacreousMap"},{"url":"http://galaxy.inf.ethz.ch","name":"Oqtans"},{"url":"https://palfinder.ls.manchester.ac.uk/","name":"Palfinder"},{"url":"http://pepsimili.e-nios.com:8080/","name":"PepSimili","usegalaxy":false},{"url":"https://usegalaxy.be/","name":"UseGalaxy.be","usegalaxy":false},{"url":"https://usegalaxy.cz/","name":"UseGalaxy.cz","usegalaxy":false},{"url":"https://usegalaxy.eu","name":"UseGalaxy.eu","usegalaxy":true},{"url":"https://usegalaxy.no/","name":"UseGalaxy.no","usegalaxy":false},{"url":"https://usegalaxy.org","name":"UseGalaxy.org (Main)","usegalaxy":true},{"url":"https://usegalaxy.org.au","name":"UseGalaxy.org.au","usegalaxy":true},{"url":"https://viralvariant.anses.fr/","name":"Viral Variant Visualizer (VVV)"}],"tools":[{"id":"toolshed.g2.bx.psu.edu/repos/iuc/checkm_lineage_wf/checkm_lineage_wf/1.2.0+galaxy0","servers":[{"state":"missing","server":"http://apostl.moffitt.org/"},{"state":"missing","server":"http://smile.hku.hk/SARGs"},{"state":"missing","server":"https://iris.angers.inra.fr/galaxypub-cfbp"},{"state":"missing","server":"https://vm-chemflow-francegrille.eu/"},{"state":"missing","server":"https://hyperbrowser.uio.no/coloc-stats"},{"state":"missing","server":"https://coralsnp.science.psu.edu/galaxy/"},{"state":"missing","server":"http://cropgalaxy.excellenceinbreeding.org/"},{"state":"missing","server":"http://dintor.eurac.edu/"},{"state":"missing","server":"http://www.freebioinfo.org/"},{"state":"missing","server":"http://igg.cloud.ba.infn.it/galaxy"},{"state":"missing","server":"https://galaxy.mesocentre.uca.fr"},{"state":"missing","server":"https://galaxy.pasteur.fr/"},{"state":"exact","version":"1.2.0+galaxy0","server":"https://galaxytrakr.org/"},{"state":"missing","server":"http://hyperbrowser.uio.no/hb/"},{"state":"missing","server":"http://gigagalaxy.net/"},{"state":"missing","server":"https://galaxy-web.ipk-gatersleben.de"},{"state":"missing","server":"https://www.immportgalaxy.org/"},{"state":"missing","server":"http://galaxy.interactomix.com/"},{"state":"missing","server":"http://galaxy.ul.edu.lb/"},{"state":"missing","server":"https://mississippi.sorbonne-universite.fr"},{"state":"missing","server":"https://neo.engr.uconn.edu/"},{"state":"missing","server":"http://mapping-by-sequencing.vm.uni-freiburg.de:8080/"},{"state":"missing","server":"http://galaxy.inf.ethz.ch"},{"state":"missing","server":"https://palfinder.ls.manchester.ac.uk/"},{"state":"missing","server":"http://pepsimili.e-nios.com:8080/"},{"state":"missing","server":"https://usegalaxy.be/"},{"state":"exact","version":"1.2.0+galaxy0","server":"https://usegalaxy.cz/"},{"state":"exact","version":"1.2.0+galaxy0","server":"https://usegalaxy.eu"},{"state":"missing","server":"https://usegalaxy.no/"},{"state":"inexact","versions":["1.2.3+galaxy0"],"server":"https://usegalaxy.org"},{"state":"inexact","versions":["1.2.3+galaxy0"],"server":"https://usegalaxy.org.au"},{"state":"missing","server":"https://viralvariant.anses.fr/"}],"version":"1.2.0+galaxy0"},{"id":"toolshed.g2.bx.psu.edu/repos/iuc/megahit/megahit/1.2.9+galaxy0","servers":[{"state":"missing","server":"http://apostl.moffitt.org/"},{"state":"missing","server":"http://smile.hku.hk/SARGs"},{"state":"missing","server":"https://iris.angers.inra.fr/galaxypub-cfbp"},{"state":"missing","server":"https://vm-chemflow-francegrille.eu/"},{"state":"missing","server":"https://hyperbrowser.uio.no/coloc-stats"},{"state":"missing","server":"https://coralsnp.science.psu.edu/galaxy/"},{"state":"missing","server":"http://cropgalaxy.excellenceinbreeding.org/"},{"state":"missing","server":"http://dintor.eurac.edu/"},{"state":"missing","server":"http://www.freebioinfo.org/"},{"state":"missing","server":"http://igg.cloud.ba.infn.it/galaxy"},{"state":"inexact","versions":["1.1.3.5"],"server":"https://galaxy.mesocentre.uca.fr"},{"state":"inexact","versions":["1.2.9+galaxy1"],"server":"https://galaxy.pasteur.fr/"},{"state":"exact","version":"1.2.9+galaxy0","server":"https://galaxytrakr.org/"},{"state":"missing","server":"http://hyperbrowser.uio.no/hb/"},{"state":"missing","server":"http://gigagalaxy.net/"},{"state":"missing","server":"https://galaxy-web.ipk-gatersleben.de"},{"state":"missing","server":"https://www.immportgalaxy.org/"},{"state":"missing","server":"http://galaxy.interactomix.com/"},{"state":"missing","server":"http://galaxy.ul.edu.lb/"},{"state":"inexact","versions":["1.2.9+galaxy1"],"server":"https://mississippi.sorbonne-universite.fr"},{"state":"missing","server":"https://neo.engr.uconn.edu/"},{"state":"missing","server":"http://mapping-by-sequencing.vm.uni-freiburg.de:8080/"},{"state":"missing","server":"http://galaxy.inf.ethz.ch"},{"state":"missing","server":"https://palfinder.ls.manchester.ac.uk/"},{"state":"inexact","versions":["1.2.9+galaxy1"],"server":"http://pepsimili.e-nios.com:8080/"},{"state":"inexact","versions":["1.1.3.4","1.1.2.3","1.1.2"],"server":"https://usegalaxy.be/"},{"state":"exact","version":"1.2.9+galaxy0","server":"https://usegalaxy.cz/"},{"state":"exact","version":"1.2.9+galaxy0","server":"https://usegalaxy.eu"},{"state":"exact","version":"1.2.9+galaxy0","server":"https://usegalaxy.no/"},{"state":"exact","version":"1.2.9+galaxy0","server":"https://usegalaxy.org"},{"state":"exact","version":"1.2.9+galaxy0","server":"https://usegalaxy.org.au"},{"state":"missing","server":"https://viralvariant.anses.fr/"}],"version":"1.2.9+galaxy0"}]},"topic_name_human":"Microbiome","admin_install":{"install_tool_dependencies":true,"install_repository_dependencies":true,"install_resolver_dependencies":true,"tools":[{"name":"checkm_lineage_wf","owner":"iuc","revisions":"f0107b9f2dc3","tool_panel_section_label":"Metagenomic Analysis","tool_shed_url":"https://toolshed.g2.bx.psu.edu/"},{"name":"megahit","owner":"iuc","revisions":"14ddfc8ffb93","tool_panel_section_label":"Assembly","tool_shed_url":"https://toolshed.g2.bx.psu.edu/"}]},"admin_install_yaml":"---\ninstall_tool_dependencies: true\ninstall_repository_dependencies: true\ninstall_resolver_dependencies: true\ntools:\n- name: checkm_lineage_wf\n  owner: iuc\n  revisions: f0107b9f2dc3\n  tool_panel_section_label: Metagenomic Analysis\n  tool_shed_url: https://toolshed.g2.bx.psu.edu/\n- name: megahit\n  owner: iuc\n  revisions: 14ddfc8ffb93\n  tool_panel_section_label: Assembly\n  tool_shed_url: https://toolshed.g2.bx.psu.edu/\n","tours":false,"video":false,"slides_recordings":false,"translations":{"tutorial":[],"slides":[],"video":false},"license":"CC-BY-4.0","type":"tutorial","contributors":[{"name":"Nikos Pechlivanis","twitter":"npechl","orcid":"0000-0003-2502-612X","linkedin":"npechl","joined":"2023-05","elixir_node":"gr","affiliations":["inab-certh"],"id":"npechl","url":"https://training.galaxyproject.org/training-material/api/contributors/npechl.json","page":"https://training.galaxyproject.org/training-material/hall-of-fame/npechl/"},{"name":"Fotis E. Psomopoulos","email":"fpsom@certh.gr","twitter":"fopsom","matrix":"fpsom:matrix.org","orcid":"0000-0002-0222-4273","linkedin":"fpsom","joined":"2019-03","elixir_node":"gr","affiliations":["gallantries","elixir-europe"],"id":"fpsom","url":"https://training.galaxyproject.org/training-material/api/contributors/fpsom.json","page":"https://training.galaxyproject.org/training-material/hall-of-fame/fpsom/"},{"name":"Teresa Müller","joined":"2022-09","affiliations":["uni-freiburg","elixir-europe"],"id":"teresa-m","url":"https://training.galaxyproject.org/training-material/api/contributors/teresa-m.json","page":"https://training.galaxyproject.org/training-material/hall-of-fame/teresa-m/"},{"name":"Deepti Varshney","joined":"2022-12","affiliations":["uni-freiburg","elixir-europe"],"id":"deeptivarshney","url":"https://training.galaxyproject.org/training-material/api/contributors/deeptivarshney.json","page":"https://training.galaxyproject.org/training-material/hall-of-fame/deeptivarshney/"},{"name":"Bérénice Batut","email":"berenice.batut@gmail.com","twitter":"bebatut","linkedin":"berenicebatut","matrix":"bebatut:matrix.org","orcid":"0000-0001-9852-1987","joined":"2017-09","elixir_node":"fr","contact_for_training":true,"location":{"country":"FR","lat":45.77,"lon":3.08},"fediverse":"https://piaille.fr/@bebatut","fediverse_flavor":"mastodon","affiliations":["gallantries","ifb","elixir-europe"],"id":"bebatut","url":"https://training.galaxyproject.org/training-material/api/contributors/bebatut.json","page":"https://training.galaxyproject.org/training-material/hall-of-fame/bebatut/"},{"name":"Nikos Pechlivanis","twitter":"npechl","orcid":"0000-0003-2502-612X","linkedin":"npechl","joined":"2023-05","elixir_node":"gr","affiliations":["inab-certh"],"id":"npechl","url":"https://training.galaxyproject.org/training-material/api/contributors/npechl.json","page":"https://training.galaxyproject.org/training-material/hall-of-fame/npechl/"},{"name":"Helena Rasche","orcid":"0000-0001-9760-8992","maintainer_contact":"gitter","matrix":"hexylena:matrix.org","joined":"2017-09","elixir_node":"nl","affiliations":["erasmusmc","gallantries","by-covid","elixir-europe","elixir-converge"],"former_affiliations":["deNBI","avans-atgm","uni-freiburg"],"contact_for_training":false,"location":{"country":"NL","lat":51.91,"lon":4.46},"id":"hexylena","url":"https://training.galaxyproject.org/training-material/api/contributors/hexylena.json","page":"https://training.galaxyproject.org/training-material/hall-of-fame/hexylena/"}]}